[{"url":"http://localhost:8000/listings/613/","latitude":48.8463,"longitude":-122.593,"neighbourhood":null,"price":2000,"date_listed":1455159312,"bedrooms":0,"bathrooms":0,"description":"0BR/0BA  - 5640 3rd Ave","listing_url":"https://www.padmapper.com/listings/13738795.-0-bedroom-0-bathroom-at-5640-3rd-Ave-Ferndale-WA-98248-in-","listing_id":248812144,"address":"5640 3rd Ave, Ferndale, WA 98248"},{"url":"http://localhost:8000/listings/532/","latitude":48.785,"longitude":-122.514,"neighbourhood":null,"price":895,"date_listed":1455312545,"bedrooms":2,"bathrooms":1,"description":"2BR/1BA Apartment - 3206 W Maplewood Ave","listing_url":"https://www.padmapper.com/listings/14156396.-2-bedroom-1-bathroom-Apartment-at-3206-W-Maplewood-Ave-Bellingham-WA-98225-in-","listing_id":248912300,"address":"3206 W Maplewood Ave, Bellingham, WA 98225"},{"url":"http://localhost:8000/listings/466/","latitude":48.7611,"longitude":-122.449,"neighbourhood":null,"price":810,"date_listed":1455690416,"bedrooms":2,"bathrooms":1,"description":"2BR/1BA Apartment - 1810 Texas St","listing_url":"https://www.padmapper.com/listings/14154937.-2-bedroom-1-bathroom-Apartment-at-1810-Texas-St-Bellingham-WA-98229-in-","listing_id":249082393,"address":"1810 Texas St, Bellingham, WA 98229"},{"url":"http://localhost:8000/listings/610/","latitude":48.7659,"longitude":-122.452,"neighbourhood":null,"price":1590,"date_listed":1455970175,"bedrooms":3,"bathrooms":3,"description":"3BR/2.5BA House - 1539 Valhalla Ln","listing_url":"https://www.padmapper.com/listings/14251723.-3-bedroom-2-5-bathroom-House-at-1539-Valhalla-Ln-Bellingham-WA-98226","listing_id":249231250,"address":"1539 Valhalla Ln, Bellingham, WA 98226"},{"url":"http://localhost:8000/listings/602/","latitude":48.8223,"longitude":-122.323,"neighbourhood":null,"price":1400,"date_listed":1456775738,"bedrooms":3,"bathrooms":3,"description":"3BR/2.5BA House - 3092 Mt Baker Hwy","listing_url":"https://www.padmapper.com/listings/12939130.-3-bedroom-2-5-bathroom-House-at-3092-Mt-Baker-Hwy-Bellingham-WA-98226","listing_id":249466126,"address":"3092 Mt Baker Hwy, Bellingham, WA 98226"},{"url":"http://localhost:8000/listings/611/","latitude":48.778,"longitude":-122.5,"neighbourhood":null,"price":725,"date_listed":1457981795,"bedrooms":1,"bathrooms":1,"description":"1BR/1BA Apartment - 3409 Northwest Ave","listing_url":"https://www.padmapper.com/listings/13645549.-1-bedroom-1-bathroom-Apartment-at-3409-Northwest-Ave-Bellingham-WA-98225","listing_id":250005579,"address":"3409 Northwest Ave, Bellingham, WA 98225"},{"url":"http://localhost:8000/listings/64/","latitude":49.2787,"longitude":-123.121,"neighbourhood":null,"price":2785,"date_listed":1458388945,"bedrooms":2,"bathrooms":2,"description":"2BR/2BA Apartment - 980 Seymour St","listing_url":"https://www.padmapper.com/listings/7858097.-2-bedroom-2-bathroom-Apartment-at-980-Seymour-St-Vancouver-BC-V6B-1B4","listing_id":250199575,"address":"980 Seymour St, Vancouver, BC V6B 1B4"},{"url":"http://localhost:8000/listings/90/","latitude":49.176,"longitude":-123.954,"neighbourhood":null,"price":750,"date_listed":1459512033,"bedrooms":1,"bathrooms":1,"description":"1BR/1BA Apartment - 579 Rosehill St","listing_url":"https://www.padmapper.com/listings/7646535.-1-bedroom-1-bathroom-Apartment-at-579-Rosehill-St-Nanaimo-BC-V9S-1E6","listing_id":250622074,"address":"579 Rosehill St, Nanaimo, BC V9S 1E6"},{"url":"http://localhost:8000/listings/61/","latitude":49.176,"longitude":-123.954,"neighbourhood":null,"price":800,"date_listed":1459512034,"bedrooms":2,"bathrooms":1,"description":"2BR/1BA Apartment - 579 Rosehill St","listing_url":"https://www.padmapper.com/listings/7646536.-2-bedroom-1-bathroom-Apartment-at-579-Rosehill-St-Nanaimo-BC-V9S-1E6","listing_id":250622077,"address":"579 Rosehill St, Nanaimo, BC V9S 1E6"},{"url":"http://localhost:8000/listings/94/","latitude":49.1699,"longitude":-123.961,"neighbourhood":null,"price":765,"date_listed":1459512059,"bedrooms":1,"bathrooms":1,"description":"1BR/1BA Apartment - 149 Wakesiah Ave","listing_url":"https://www.padmapper.com/listings/7646538.-1-bedroom-1-bathroom-Apartment-at-149-Wakesiah-Ave-Nanaimo-BC-V9R-3J9","listing_id":250622085,"address":"149 Wakesiah Ave, Nanaimo, BC V9R 3J9"},{"url":"http://localhost:8000/listings/70/","latitude":49.1902,"longitude":-123.958,"neighbourhood":null,"price":1075,"date_listed":1459512061,"bedrooms":2,"bathrooms":1,"description":"2BR/1BA Apartment - 789 Brechin Rd","listing_url":"https://www.padmapper.com/listings/7646541.-2-bedroom-1-bathroom-Apartment-at-789-Brechin-Rd-Nanaimo-BC-V9S-2X2","listing_id":250622100,"address":"789 Brechin Rd, Nanaimo, BC V9S 2X2"},{"url":"http://localhost:8000/listings/76/","latitude":49.1752,"longitude":-123.955,"neighbourhood":null,"price":750,"date_listed":1459512162,"bedrooms":1,"bathrooms":1,"description":"1BR/1BA Apartment - 309 Millstone Ave","listing_url":"https://www.padmapper.com/listings/7646661.-1-bedroom-1-bathroom-Apartment-at-309-Millstone-Ave-Nanaimo-BC-V9S-5A6","listing_id":250622604,"address":"309 Millstone Ave, Nanaimo, BC V9S 5A6"},{"url":"http://localhost:8000/listings/77/","latitude":49.1833,"longitude":-123.974,"neighbourhood":null,"price":925,"date_listed":1459512170,"bedrooms":1,"bathrooms":1,"description":"1BR/1BA Apartment - 1651 Dufferin Crescent","listing_url":"https://www.padmapper.com/listings/7646669.-1-bedroom-1-bathroom-Apartment-at-1651-Dufferin-Crescent-Nanaimo-BC-V9S-5N3","listing_id":250622651,"address":"1651 Dufferin Crescent, Nanaimo, BC V9S 5N3"},{"url":"http://localhost:8000/listings/72/","latitude":49.1833,"longitude":-123.974,"neighbourhood":null,"price":975,"date_listed":1459512171,"bedrooms":2,"bathrooms":1,"description":"2BR/1BA Apartment - 1651 Dufferin Crescent","listing_url":"https://www.padmapper.com/listings/7646670.-2-bedroom-1-bathroom-Apartment-at-1651-Dufferin-Crescent-Nanaimo-BC-V9S-5N3","listing_id":250622656,"address":"1651 Dufferin Crescent, Nanaimo, BC V9S 5N3"},{"url":"http://localhost:8000/listings/71/","latitude":49.1765,"longitude":-123.946,"neighbourhood":null,"price":775,"date_listed":1459512179,"bedrooms":1,"bathrooms":1,"description":"1BR/1BA Apartment - 222 Rosehill St","listing_url":"https://www.padmapper.com/listings/7646689.-1-bedroom-1-bathroom-Apartment-at-222-Rosehill-St-Nanaimo-BC-V9S-1E1","listing_id":250622692,"address":"222 Rosehill St, Nanaimo, BC V9S 1E1"},{"url":"http://localhost:8000/listings/78/","latitude":49.1718,"longitude":-123.946,"neighbourhood":null,"price":775,"date_listed":1459512190,"bedrooms":1,"bathrooms":1,"description":"1BR/1BA Apartment - 21 Prideaux St","listing_url":"https://www.padmapper.com/listings/7646701.-1-bedroom-1-bathroom-Apartment-at-21-Prideaux-St-Nanaimo-BC-V9R","listing_id":250622752,"address":"21 Prideaux St, Nanaimo, BC V9R"},{"url":"http://localhost:8000/listings/81/","latitude":49.0375,"longitude":-122.293,"neighbourhood":null,"price":800,"date_listed":1459598626,"bedrooms":2,"bathrooms":1,"description":"2BR/1BA Apartment - 1948 McCallum Rd","listing_url":"https://www.padmapper.com/listings/7646680.-2-bedroom-1-bathroom-Apartment-at-1948-McCallum-Rd-Abbotsford-BC-V2S-3N2","listing_id":250692432,"address":"1948 McCallum Rd, Abbotsford, BC V2S 3N2"},{"url":"http://localhost:8000/listings/74/","latitude":49.1355,"longitude":-122.3,"neighbourhood":null,"price":800,"date_listed":1459598653,"bedrooms":2,"bathrooms":1,"description":"2BR/1BA Apartment - 33371 2 Ave","listing_url":"https://www.padmapper.com/listings/7646735.-2-bedroom-1-bathroom-Apartment-at-33371-2-Ave-Mission-BC-V2V","listing_id":250692461,"address":"33371 2 Ave, Mission, BC V2V"},{"url":"http://localhost:8000/listings/605/","latitude":48.7656,"longitude":-122.413,"neighbourhood":null,"price":1250,"date_listed":1459952429,"bedrooms":2,"bathrooms":2,"description":"2BR/1.5BA House - 600 Northshore Dr","listing_url":"https://www.padmapper.com/listings/15081649.-2-bedroom-1-5-bathroom-House-at-600-Northshore-Dr-Bellingham-WA-98226","listing_id":250929341,"address":"600 Northshore Dr, Bellingham, WA 98226"},{"url":"http://localhost:8000/listings/515/","latitude":48.7241,"longitude":-122.488,"neighbourhood":null,"price":700,"date_listed":1460095041,"bedrooms":0,"bathrooms":1,"description":"0BR/1BA Apartment - 2211 Douglas Ave","listing_url":"https://www.padmapper.com/listings/15321637.-0-bedroom-1-bathroom-Apartment-at-2211-Douglas-Ave-Bellingham-WA-98225","listing_id":250982162,"address":"2211 Douglas Ave, Bellingham, WA 98225"},{"url":"http://localhost:8000/listings/603/","latitude":48.7484,"longitude":-122.462,"neighbourhood":null,"price":775,"date_listed":1460569138,"bedrooms":2,"bathrooms":1,"description":"2BR/1BA Apartment - 1456 Lincoln St","listing_url":"https://www.padmapper.com/listings/12921178.-2-bedroom-1-bathroom-Apartment-at-1456-Lincoln-St-Bellingham-WA-98229","listing_id":251130858,"address":"1456 Lincoln St, Bellingham, WA 98229"},{"url":"http://localhost:8000/listings/560/","latitude":48.7346,"longitude":-122.466,"neighbourhood":null,"price":1300,"date_listed":1460870646,"bedrooms":3,"bathrooms":2,"description":"3BR/1.5BA Apartment - 620 Lincoln St","listing_url":"https://www.padmapper.com/listings/15321617.-3-bedroom-1-5-bathroom-Apartment-at-620-Lincoln-St-Bellingham-WA-98229","listing_id":251219270,"address":"620 Lincoln St, Bellingham, WA 98229"},{"url":"http://localhost:8000/listings/461/","latitude":48.772,"longitude":-122.443,"neighbourhood":null,"price":985,"date_listed":1461238720,"bedrooms":1,"bathrooms":1,"description":"1BR/1BA Apartment - Cornerstone & Barkley Blvd","listing_url":"https://www.padmapper.com/listings/15599043.-1-bedroom-1-bathroom-Apartment-at-Cornerstone-Barkley-Blvd-Bellingham-WA-98226","listing_id":251323457,"address":"Cornerston & Barkley Blvd, Bellingham, WA 98226"},{"url":"http://localhost:8000/listings/607/","latitude":48.7405,"longitude":-122.48,"neighbourhood":null,"price":1000,"date_listed":1461511903,"bedrooms":3,"bathrooms":1,"description":"3BR/1BA Apartment - 800 Indian Terrace","listing_url":"https://www.padmapper.com/listings/15627833.-3-bedroom-1-bathroom-Apartment-at-800-Indian-Terrace-Bellingham-WA-98225","listing_id":251415355,"address":"800 Indian Terrace, Bellingham, WA 98225"},{"url":"http://localhost:8000/listings/612/","latitude":48.7854,"longitude":-122.504,"neighbourhood":null,"price":1395,"date_listed":1461985877,"bedrooms":2,"bathrooms":1,"description":"2BR/1BA Apartment - 733 Sterling Dr","listing_url":"https://www.padmapper.com/listings/14845902.-2-bedroom-1-bathroom-Apartment-at-733-Sterling-Dr-Bellingham-WA-98226","listing_id":251547541,"address":"733 Sterling Dr, Bellingham, WA 98226"},{"url":"http://localhost:8000/listings/10/","latitude":48.7116,"longitude":-122.471,"neighbourhood":null,"price":2415,"date_listed":1461993338,"bedrooms":3,"bathrooms":2,"description":"3BR/2BA House - 3550 Cody Ave","listing_url":"https://www.padmapper.com/listings/15873456.-3-bedroom-2-bathroom-House-at-3550-Cody-Ave-Bellingham-WA-98229","listing_id":251552448,"address":"3550 Cody Ave, Bellingham, WA 98229"},{"url":"http://localhost:8000/listings/483/","latitude":48.7836,"longitude":-122.481,"neighbourhood":null,"price":1420,"date_listed":1462017838,"bedrooms":1,"bathrooms":1,"description":"1BR/1BA Apartment - 3930 Affinity Ln","listing_url":"https://www.padmapper.com/listings/15909852.-1-bedroom-1-bathroom-Apartment-at-3930-Affinity-Ln-Bellingham-WA-98226","listing_id":251598640,"address":"3930 Affinity Ln, Bellingham, WA 98226"},{"url":"http://localhost:8000/listings/487/","latitude":48.7836,"longitude":-122.481,"neighbourhood":null,"price":1195,"date_listed":1462017839,"bedrooms":0,"bathrooms":1,"description":"0BR/1BA Apartment - 3930 Affinity Ln","listing_url":"https://www.padmapper.com/listings/15909859.-0-bedroom-1-bathroom-Apartment-at-3930-Affinity-Ln-Bellingham-WA-98226","listing_id":251598647,"address":"3930 Affinity Ln, Bellingham, WA 98226"},{"url":"http://localhost:8000/listings/534/","latitude":48.7836,"longitude":-122.481,"neighbourhood":null,"price":1725,"date_listed":1462017839,"bedrooms":2,"bathrooms":2,"description":"2BR/1.5BA Apartment - 3930 Affinity Ln","listing_url":"https://www.padmapper.com/listings/15909856.-2-bedroom-1-5-bathroom-Apartment-at-3930-Affinity-Ln-Bellingham-WA-98226","listing_id":251598644,"address":"3930 Affinity Ln, Bellingham, WA 98226"},{"url":"http://localhost:8000/listings/537/","latitude":48.791,"longitude":-122.484,"neighbourhood":null,"price":815,"date_listed":1462020139,"bedrooms":2,"bathrooms":2,"description":"2BR/1.5BA Apartment - 135 Prince Ave","listing_url":"https://www.padmapper.com/listings/15918878.-2-bedroom-1-5-bathroom-Apartment-at-135-Prince-Ave-Bellingham-WA-98226","listing_id":251608034,"address":"135 Prince Ave, Bellingham, WA 98226"},{"url":"http://localhost:8000/listings/585/","latitude":49.2918,"longitude":-123.131,"neighbourhood":null,"price":7500,"date_listed":1462030356,"bedrooms":2,"bathrooms":2,"description":"2BR/2BA Apartment - 1680 Bayshore Dr","listing_url":"https://www.padmapper.com/listings/15942568.-2-bedroom-2-bathroom-Apartment-at-1680-Bayshore-Dr-Vancouver-BC-V6G-3H6","listing_id":251639289,"address":"1680 Bayshore Dr, Vancouver, BC V6G 3H6"},{"url":"http://localhost:8000/listings/583/","latitude":49.2841,"longitude":-123.142,"neighbourhood":null,"price":7900,"date_listed":1462030390,"bedrooms":3,"bathrooms":3,"description":"3BR/3BA Apartment - 1600 Beach Ave","listing_url":"https://www.padmapper.com/listings/15942583.-3-bedroom-3-bathroom-Apartment-at-1600-Beach-Ave-Vancouver-BC-V6G","listing_id":251639304,"address":"1600 Beach Ave, Vancouver, BC V6G"},{"url":"http://localhost:8000/listings/493/","latitude":49.1759,"longitude":-123.954,"neighbourhood":null,"price":660,"date_listed":1462030659,"bedrooms":0,"bathrooms":1,"description":"0BR/1BA Apartment - 579 Rosehill St","listing_url":"https://www.padmapper.com/listings/15943214.-0-bedroom-1-bathroom-Apartment-at-579-Rosehill-St-Nanaimo-BC-V9S-1E7","listing_id":251639937,"address":"579 Rosehill St, Nanaimo, BC V9S 1E7"},{"url":"http://localhost:8000/listings/511/","latitude":49.1759,"longitude":-123.954,"neighbourhood":null,"price":800,"date_listed":1462030659,"bedrooms":2,"bathrooms":1,"description":"2BR/1BA Apartment - 579 Rosehill St","listing_url":"https://www.padmapper.com/listings/15943213.-2-bedroom-1-bathroom-Apartment-at-579-Rosehill-St-Nanaimo-BC-V9S-1E7","listing_id":251639936,"address":"579 Rosehill St, Nanaimo, BC V9S 1E7"},{"url":"http://localhost:8000/listings/526/","latitude":49.1694,"longitude":-123.961,"neighbourhood":null,"price":765,"date_listed":1462030659,"bedrooms":1,"bathrooms":1,"description":"1BR/1BA Apartment - 155 Wakesiah Ave","listing_url":"https://www.padmapper.com/listings/15943215.-1-bedroom-1-bathroom-Apartment-at-155-Wakesiah-Ave-Nanaimo-BC-V9R-3K1","listing_id":251639938,"address":"155 Wakesiah Ave, Nanaimo, BC V9R 3K1"},{"url":"http://localhost:8000/listings/595/","latitude":49.1759,"longitude":-123.954,"neighbourhood":null,"price":750,"date_listed":1462030659,"bedrooms":1,"bathrooms":1,"description":"1BR/1BA Apartment - 579 Rosehill St","listing_url":"https://www.padmapper.com/listings/15943212.-1-bedroom-1-bathroom-Apartment-at-579-Rosehill-St-Nanaimo-BC-V9S-1E7","listing_id":251639935,"address":"579 Rosehill St, Nanaimo, BC V9S 1E7"},{"url":"http://localhost:8000/listings/540/","latitude":49.1694,"longitude":-123.961,"neighbourhood":null,"price":975,"date_listed":1462030660,"bedrooms":2,"bathrooms":1,"description":"2BR/1BA Apartment - 155 Wakesiah Ave","listing_url":"https://www.padmapper.com/listings/15943216.-2-bedroom-1-bathroom-Apartment-at-155-Wakesiah-Ave-Nanaimo-BC-V9R-3K1","listing_id":251639939,"address":"155 Wakesiah Ave, Nanaimo, BC V9R 3K1"},{"url":"http://localhost:8000/listings/575/","latitude":49.1694,"longitude":-123.961,"neighbourhood":null,"price":1075,"date_listed":1462030660,"bedrooms":3,"bathrooms":1,"description":"3BR/1BA Apartment - 155 Wakesiah Ave","listing_url":"https://www.padmapper.com/listings/15943217.-3-bedroom-1-bathroom-Apartment-at-155-Wakesiah-Ave-Nanaimo-BC-V9R-3K1","listing_id":251639940,"address":"155 Wakesiah Ave, Nanaimo, BC V9R 3K1"},{"url":"http://localhost:8000/listings/54/","latitude":49.1694,"longitude":-123.961,"neighbourhood":null,"price":655,"date_listed":1462030661,"bedrooms":0,"bathrooms":1,"description":"0BR/1BA Apartment - 155 Wakesiah Ave","listing_url":"https://www.padmapper.com/listings/15943218.-0-bedroom-1-bathroom-Apartment-at-155-Wakesiah-Ave-Nanaimo-BC-V9R-3K1","listing_id":251639941,"address":"155 Wakesiah Ave, Nanaimo, BC V9R 3K1"},{"url":"http://localhost:8000/listings/548/","latitude":49.1889,"longitude":-123.959,"neighbourhood":null,"price":1075,"date_listed":1462030661,"bedrooms":2,"bathrooms":1,"description":"2BR/1BA Apartment - 835 Brechin Rd","listing_url":"https://www.padmapper.com/listings/15943219.-2-bedroom-1-bathroom-Apartment-at-835-Brechin-Rd-Nanaimo-BC-V9S-2X3","listing_id":251639942,"address":"835 Brechin Rd, Nanaimo, BC V9S 2X3"},{"url":"http://localhost:8000/listings/593/","latitude":49.1889,"longitude":-123.959,"neighbourhood":null,"price":1185,"date_listed":1462030661,"bedrooms":3,"bathrooms":1,"description":"3BR/1BA Apartment - 835 Brechin Rd","listing_url":"https://www.padmapper.com/listings/15943220.-3-bedroom-1-bathroom-Apartment-at-835-Brechin-Rd-Nanaimo-BC-V9S-2X3","listing_id":251639943,"address":"835 Brechin Rd, Nanaimo, BC V9S 2X3"},{"url":"http://localhost:8000/listings/480/","latitude":49.1769,"longitude":-123.956,"neighbourhood":null,"price":765,"date_listed":1462030662,"bedrooms":1,"bathrooms":1,"description":"1BR/1BA Apartment - 645 Townsite Rd","listing_url":"https://www.padmapper.com/listings/15943221.-1-bedroom-1-bathroom-Apartment-at-645-Townsite-Rd-Nanaimo-BC-V9S-5K1","listing_id":251639944,"address":"645 Townsite Rd, Nanaimo, BC V9S 5K1"},{"url":"http://localhost:8000/listings/530/","latitude":49.1769,"longitude":-123.956,"neighbourhood":null,"price":685,"date_listed":1462030662,"bedrooms":0,"bathrooms":1,"description":"0BR/1BA Apartment - 645 Townsite Rd","listing_url":"https://www.padmapper.com/listings/15943223.-0-bedroom-1-bathroom-Apartment-at-645-Townsite-Rd-Nanaimo-BC-V9S-5K1","listing_id":251639946,"address":"645 Townsite Rd, Nanaimo, BC V9S 5K1"},{"url":"http://localhost:8000/listings/580/","latitude":49.1749,"longitude":-123.955,"neighbourhood":null,"price":750,"date_listed":1462030662,"bedrooms":1,"bathrooms":1,"description":"1BR/1BA Apartment - 309 Millstone Ave","listing_url":"https://www.padmapper.com/listings/15943224.-1-bedroom-1-bathroom-Apartment-at-309-Millstone-Ave-Nanaimo-BC-V9S-5A6","listing_id":251639947,"address":"309 Millstone Ave, Nanaimo, BC V9S 5A6"},{"url":"http://localhost:8000/listings/500/","latitude":49.1459,"longitude":-123.956,"neighbourhood":null,"price":1025,"date_listed":1462030663,"bedrooms":2,"bathrooms":1,"description":"2BR/1BA Apartment - 847 Howard Ave","listing_url":"https://www.padmapper.com/listings/15943227.-2-bedroom-1-bathroom-Apartment-at-847-Howard-Ave-Nanaimo-BC-V9R-3T3","listing_id":251639950,"address":"847 Howard Ave, Nanaimo, BC V9R 3T3"},{"url":"http://localhost:8000/listings/536/","latitude":49.1749,"longitude":-123.955,"neighbourhood":null,"price":1085,"date_listed":1462030663,"bedrooms":3,"bathrooms":1,"description":"3BR/1BA Apartment - 309 Millstone Ave","listing_url":"https://www.padmapper.com/listings/15943226.-3-bedroom-1-bathroom-Apartment-at-309-Millstone-Ave-Nanaimo-BC-V9S-5A6","listing_id":251639949,"address":"309 Millstone Ave, Nanaimo, BC V9S 5A6"},{"url":"http://localhost:8000/listings/545/","latitude":49.1749,"longitude":-123.955,"neighbourhood":null,"price":895,"date_listed":1462030663,"bedrooms":2,"bathrooms":1,"description":"2BR/1BA Apartment - 309 Millstone Ave","listing_url":"https://www.padmapper.com/listings/15943225.-2-bedroom-1-bathroom-Apartment-at-309-Millstone-Ave-Nanaimo-BC-V9S-5A6","listing_id":251639948,"address":"309 Millstone Ave, Nanaimo, BC V9S 5A6"},{"url":"http://localhost:8000/listings/479/","latitude":49.1831,"longitude":-123.975,"neighbourhood":null,"price":975,"date_listed":1462030664,"bedrooms":2,"bathrooms":1,"description":"2BR/1BA Apartment - 1651 Dufferin Crescent","listing_url":"https://www.padmapper.com/listings/15943230.-2-bedroom-1-bathroom-Apartment-at-1651-Dufferin-Crescent-Nanaimo-BC-V9S-5T1","listing_id":251639953,"address":"1651 Dufferin Crescent, Nanaimo, BC V9S 5T1"},{"url":"http://localhost:8000/listings/508/","latitude":49.1831,"longitude":-123.975,"neighbourhood":null,"price":925,"date_listed":1462030664,"bedrooms":1,"bathrooms":1,"description":"1BR/1BA Apartment - 1651 Dufferin Crescent","listing_url":"https://www.padmapper.com/listings/15943229.-1-bedroom-1-bathroom-Apartment-at-1651-Dufferin-Crescent-Nanaimo-BC-V9S-5T1","listing_id":251639952,"address":"1651 Dufferin Crescent, Nanaimo, BC V9S 5T1"},{"url":"http://localhost:8000/listings/586/","latitude":49.1459,"longitude":-123.956,"neighbourhood":null,"price":1200,"date_listed":1462030664,"bedrooms":3,"bathrooms":1,"description":"3BR/1BA Apartment - 847 Howard Ave","listing_url":"https://www.padmapper.com/listings/15943228.-3-bedroom-1-bathroom-Apartment-at-847-Howard-Ave-Nanaimo-BC-V9R-3T3","listing_id":251639951,"address":"847 Howard Ave, Nanaimo, BC V9R 3T3"},{"url":"http://localhost:8000/listings/535/","latitude":49.1765,"longitude":-123.946,"neighbourhood":null,"price":675,"date_listed":1462030665,"bedrooms":0,"bathrooms":1,"description":"0BR/1BA Apartment - 222 Rosehill St","listing_url":"https://www.padmapper.com/listings/15943232.-0-bedroom-1-bathroom-Apartment-at-222-Rosehill-St-Nanaimo-BC-V9S-5G8","listing_id":251639955,"address":"222 Rosehill St, Nanaimo, BC V9S 5G8"},{"url":"http://localhost:8000/listings/581/","latitude":49.1757,"longitude":-123.946,"neighbourhood":null,"price":815,"date_listed":1462030665,"bedrooms":1,"bathrooms":1,"description":"1BR/1BA Apartment - 350 Terminal Ave N","listing_url":"https://www.padmapper.com/listings/15943233.-1-bedroom-1-bathroom-Apartment-at-350-Terminal-Ave-N-Nanaimo-BC-V9S-4J7","listing_id":251639956,"address":"350 Terminal Ave N, Nanaimo, BC V9S 4J7"},{"url":"http://localhost:8000/listings/584/","latitude":49.1765,"longitude":-123.946,"neighbourhood":null,"price":775,"date_listed":1462030665,"bedrooms":1,"bathrooms":1,"description":"1BR/1BA Apartment - 222 Rosehill St","listing_url":"https://www.padmapper.com/listings/15943231.-1-bedroom-1-bathroom-Apartment-at-222-Rosehill-St-Nanaimo-BC-V9S-5G8","listing_id":251639954,"address":"222 Rosehill St, Nanaimo, BC V9S 5G8"},{"url":"http://localhost:8000/listings/490/","latitude":49.1757,"longitude":-123.946,"neighbourhood":null,"price":925,"date_listed":1462030666,"bedrooms":2,"bathrooms":1,"description":"2BR/1BA Apartment - 350 Terminal Ave N","listing_url":"https://www.padmapper.com/listings/15943234.-2-bedroom-1-bathroom-Apartment-at-350-Terminal-Ave-N-Nanaimo-BC-V9S-4J7","listing_id":251639957,"address":"350 Terminal Ave N, Nanaimo, BC V9S 4J7"},{"url":"http://localhost:8000/listings/527/","latitude":49.1699,"longitude":-123.938,"neighbourhood":null,"price":875,"date_listed":1462030666,"bedrooms":1,"bathrooms":1,"description":"1BR/1BA Apartment - 1 Chapel St","listing_url":"https://www.padmapper.com/listings/15943235.-1-bedroom-1-bathroom-Apartment-at-1-Chapel-St-Nanaimo-BC-V9R-5H1","listing_id":251639958,"address":"1 Chapel St, Nanaimo, BC V9R 5H1"},{"url":"http://localhost:8000/listings/486/","latitude":49.1699,"longitude":-123.938,"neighbourhood":null,"price":1050,"date_listed":1462030667,"bedrooms":2,"bathrooms":1,"description":"2BR/1BA Apartment - 1 Chapel St","listing_url":"https://www.padmapper.com/listings/15943236.-2-bedroom-1-bathroom-Apartment-at-1-Chapel-St-Nanaimo-BC-V9R-5H1","listing_id":251639959,"address":"1 Chapel St, Nanaimo, BC V9R 5H1"},{"url":"http://localhost:8000/listings/507/","latitude":49.172,"longitude":-123.946,"neighbourhood":null,"price":975,"date_listed":1462030667,"bedrooms":2,"bathrooms":1,"description":"2BR/1BA Apartment - 21 Prideaux St","listing_url":"https://www.padmapper.com/listings/15943239.-2-bedroom-1-bathroom-Apartment-at-21-Prideaux-St-Nanaimo-BC-V9R-5V7","listing_id":251639962,"address":"21 Prideaux St, Nanaimo, BC V9R 5V7"},{"url":"http://localhost:8000/listings/509/","latitude":49.172,"longitude":-123.946,"neighbourhood":null,"price":775,"date_listed":1462030667,"bedrooms":1,"bathrooms":1,"description":"1BR/1BA Apartment - 21 Prideaux St","listing_url":"https://www.padmapper.com/listings/15943238.-1-bedroom-1-bathroom-Apartment-at-21-Prideaux-St-Nanaimo-BC-V9R-5V7","listing_id":251639961,"address":"21 Prideaux St, Nanaimo, BC V9R 5V7"},{"url":"http://localhost:8000/listings/550/","latitude":49.172,"longitude":-123.946,"neighbourhood":null,"price":700,"date_listed":1462030668,"bedrooms":0,"bathrooms":1,"description":"0BR/1BA Apartment - 21 Prideaux St","listing_url":"https://www.padmapper.com/listings/15943240.-0-bedroom-1-bathroom-Apartment-at-21-Prideaux-St-Nanaimo-BC-V9R-5V7","listing_id":251639963,"address":"21 Prideaux St, Nanaimo, BC V9R 5V7"},{"url":"http://localhost:8000/listings/419/","latitude":48.7346,"longitude":-122.466,"neighbourhood":null,"price":950,"date_listed":1462083351,"bedrooms":2,"bathrooms":2,"description":"2BR/1.5BA Apartment - 620 Lincoln St","listing_url":"https://www.padmapper.com/listings/15661849.-2-bedroom-1-5-bathroom-Apartment-at-620-Lincoln-St-Bellingham-WA-98229","listing_id":251682502,"address":"620 Lincoln St, Bellingham, WA 98229"},{"url":"http://localhost:8000/listings/525/","latitude":48.7277,"longitude":-122.471,"neighbourhood":null,"price":2900,"date_listed":1462341917,"bedrooms":6,"bathrooms":3,"description":"6BR/2.5BA House - 3565 Ridgemont Way","listing_url":"https://www.padmapper.com/listings/16033119.-6-bedroom-2-5-bathroom-House-at-3565-Ridgemont-Way-Bellingham-WA-98229","listing_id":251807440,"address":"3565 Ridgemont Way, Bellingham, WA 98229"},{"url":"http://localhost:8000/listings/13/","latitude":49.2725,"longitude":-123.142,"neighbourhood":null,"price":5500,"date_listed":1462627989,"bedrooms":2,"bathrooms":3,"description":"2BR/3BA Apartment - 1450 Pennyfarthing Dr","listing_url":"https://www.padmapper.com/listings/16109259.-2-bedroom-3-bathroom-Apartment-at-1450-Pennyfarthing-Dr-Vancouver-BC-V6J-4X8","listing_id":251928516,"address":"1450 Pennyfarthing Dr, Vancouver, BC V6J 4X8"},{"url":"http://localhost:8000/listings/343/","latitude":48.7303,"longitude":-122.469,"neighbourhood":null,"price":2880,"date_listed":1462949829,"bedrooms":6,"bathrooms":2,"description":"6BR/2BA House - 3619 Fielding Avenue","listing_url":"https://www.padmapper.com/listings/16162852.-6-bedroom-2-bathroom-House-at-3619-Fielding-Avenue-Bellingham-WA-98229","listing_id":252023747,"address":"3619 Fielding Avenue, Bellingham, WA 98229"},{"url":"http://localhost:8000/listings/538/","latitude":48.8001,"longitude":-122.482,"neighbourhood":null,"price":945,"date_listed":1462952494,"bedrooms":2,"bathrooms":2,"description":"2BR/1.5BA Apartment - 4380 Tull Rd","listing_url":"https://www.padmapper.com/listings/15722082.-2-bedroom-1-5-bathroom-Apartment-at-4380-Tull-Rd-Bellingham-WA-98226","listing_id":252025887,"address":"4380 Tull Rd, Bellingham, WA 98226"},{"url":"http://localhost:8000/listings/591/","latitude":48.8429,"longitude":-122.365,"neighbourhood":null,"price":1525,"date_listed":1463117580,"bedrooms":3,"bathrooms":3,"description":"3BR/2.5BA House - 2321 Coyote Creek Dr","listing_url":"https://www.padmapper.com/listings/16101106.-3-bedroom-2-5-bathroom-House-at-2321-Coyote-Creek-Dr-Bellingham-WA-98226","listing_id":252100885,"address":"2321 Coyote Creek Dr, Bellingham, WA 98226"},{"url":"http://localhost:8000/listings/32/","latitude":48.7165,"longitude":-122.487,"neighbourhood":null,"price":2600,"date_listed":1463226377,"bedrooms":5,"bathrooms":3,"description":"5BR/3BA House - 2321 Happy Ct","listing_url":"https://www.padmapper.com/listings/15919717.-5-bedroom-3-bathroom-House-at-2321-Happy-Ct-Bellingham-WA-98225","listing_id":252143621,"address":"2321 Happy Ct, Bellingham, WA 98225"},{"url":"http://localhost:8000/listings/456/","latitude":48.7757,"longitude":-122.446,"neighbourhood":null,"price":704,"date_listed":1463615196,"bedrooms":1,"bathrooms":1,"description":"1BR/1BA Apartment - 3451 Woburn St","listing_url":"https://www.padmapper.com/listings/16318151.-1-bedroom-1-bathroom-Apartment-at-3451-Woburn-St-Bellingham-WA-98226","listing_id":252259374,"address":"3451 Woburn St, Bellingham, WA 98226"},{"url":"http://localhost:8000/listings/474/","latitude":48.7757,"longitude":-122.446,"neighbourhood":null,"price":962,"date_listed":1463615196,"bedrooms":3,"bathrooms":2,"description":"3BR/2BA Apartment - 3451 Woburn St","listing_url":"https://www.padmapper.com/listings/16318149.-3-bedroom-2-bathroom-Apartment-at-3451-Woburn-St-Bellingham-WA-98226","listing_id":252259372,"address":"3451 Woburn St, Bellingham, WA 98226"},{"url":"http://localhost:8000/listings/521/","latitude":48.7757,"longitude":-122.446,"neighbourhood":null,"price":843,"date_listed":1463615196,"bedrooms":2,"bathrooms":1,"description":"2BR/1BA Apartment - 3451 Woburn St","listing_url":"https://www.padmapper.com/listings/16318154.-2-bedroom-1-bathroom-Apartment-at-3451-Woburn-St-Bellingham-WA-98226","listing_id":252259376,"address":"3451 Woburn St, Bellingham, WA 98226"},{"url":"http://localhost:8000/listings/496/","latitude":48.7146,"longitude":-122.495,"neighbourhood":null,"price":1450,"date_listed":1463615201,"bedrooms":3,"bathrooms":2,"description":"3BR/2BA Apartment - 1900 18th St","listing_url":"https://www.padmapper.com/listings/16318168.-3-bedroom-2-bathroom-Apartment-at-1900-18th-St-Bellingham-WA-98225","listing_id":252259390,"address":"1900 18th St, Bellingham, WA 98225"},{"url":"http://localhost:8000/listings/391/","latitude":48.7146,"longitude":-122.495,"neighbourhood":null,"price":1300,"date_listed":1463615202,"bedrooms":2,"bathrooms":2,"description":"2BR/2BA Apartment - 1900 18th St","listing_url":"https://www.padmapper.com/listings/16318171.-2-bedroom-2-bathroom-Apartment-at-1900-18th-St-Bellingham-WA-98225","listing_id":252259393,"address":"1900 18th St, Bellingham, WA 98225"},{"url":"http://localhost:8000/listings/465/","latitude":48.7146,"longitude":-122.495,"neighbourhood":null,"price":955,"date_listed":1463615202,"bedrooms":1,"bathrooms":1,"description":"1BR/1BA Apartment - 1900 18th St","listing_url":"https://www.padmapper.com/listings/16318169.-1-bedroom-1-bathroom-Apartment-at-1900-18th-St-Bellingham-WA-98225","listing_id":252259391,"address":"1900 18th St, Bellingham, WA 98225"},{"url":"http://localhost:8000/listings/463/","latitude":48.7363,"longitude":-122.465,"neighbourhood":null,"price":1450,"date_listed":1463615209,"bedrooms":3,"bathrooms":2,"description":"3BR/2BA Apartment - 1743 E Maple St","listing_url":"https://www.padmapper.com/listings/16318187.-3-bedroom-2-bathroom-Apartment-at-1743-E-Maple-St-Bellingham-WA-98229","listing_id":252259412,"address":"1743 E Maple St, Bellingham, WA 98229"},{"url":"http://localhost:8000/listings/489/","latitude":48.7363,"longitude":-122.465,"neighbourhood":null,"price":1085,"date_listed":1463615211,"bedrooms":2,"bathrooms":1,"description":"2BR/1BA Apartment - 1743 E Maple St","listing_url":"https://www.padmapper.com/listings/16318190.-2-bedroom-1-bathroom-Apartment-at-1743-E-Maple-St-Bellingham-WA-98229","listing_id":252259415,"address":"1743 E Maple St, Bellingham, WA 98229"},{"url":"http://localhost:8000/listings/412/","latitude":48.7302,"longitude":-122.477,"neighbourhood":null,"price":725,"date_listed":1463634311,"bedrooms":1,"bathrooms":1,"description":"1BR/1BA Apartment - 301 31st St","listing_url":"https://www.padmapper.com/listings/15823825.-1-bedroom-1-bathroom-Apartment-at-301-31st-St-Bellingham-WA-98225","listing_id":252266107,"address":"301 31st St, Bellingham, WA 98225"},{"url":"http://localhost:8000/listings/420/","latitude":48.7302,"longitude":-122.477,"neighbourhood":null,"price":895,"date_listed":1463722718,"bedrooms":2,"bathrooms":1,"description":"2BR/1BA Apartment - 301 31st St","listing_url":"https://www.padmapper.com/listings/16237130.-2-bedroom-1-bathroom-Apartment-at-301-31st-St-Bellingham-WA-98225","listing_id":252291190,"address":"301 31st St, Bellingham, WA 98225"},{"url":"http://localhost:8000/listings/426/","latitude":49.32,"longitude":-123.077,"neighbourhood":null,"price":1250,"date_listed":1463805418,"bedrooms":1,"bathrooms":2,"description":"1BR/1.5BA Townhouse - 230 13th Street West","listing_url":"https://www.padmapper.com/listings/16357864.-1-bedroom-1-5-bathroom-Townhouse-at-230-13th-Street-West-North-Vancouver-BC-V7M","listing_id":252323564,"address":"230 13th Street West, North Vancouver, BC V7M"},{"url":"http://localhost:8000/listings/608/","latitude":48.9322,"longitude":-122.743,"neighbourhood":null,"price":1295,"date_listed":1463879068,"bedrooms":3,"bathrooms":2,"description":"3BR/2BA House - 4804 N Golf Course Dr","listing_url":"https://www.padmapper.com/listings/15260588.-3-bedroom-2-bathroom-House-at-4804-N-Golf-Course-Dr-Blaine-WA-98230","listing_id":252350676,"address":"4804 N Golf Course Dr, Blaine, WA 98230"},{"url":"http://localhost:8000/listings/578/","latitude":48.7252,"longitude":-122.443,"neighbourhood":null,"price":1955,"date_listed":1464241085,"bedrooms":4,"bathrooms":2,"description":"4BR/2BA Apartment - 2310 Yew Street Rd","listing_url":"https://www.padmapper.com/listings/14453817.-4-bedroom-2-bathroom-Apartment-at-2310-Yew-Street-Rd-Bellingham-WA-98229","listing_id":252434937,"address":"2310 Yew Street Rd, Bellingham, WA 98229"},{"url":"http://localhost:8000/listings/443/","latitude":48.7888,"longitude":-122.499,"neighbourhood":null,"price":1025,"date_listed":1464241689,"bedrooms":1,"bathrooms":1,"description":"1BR/1BA Apartment - 557 W Bakerview Rd","listing_url":"https://www.padmapper.com/listings/16215998.-1-bedroom-1-bathroom-Apartment-at-557-W-Bakerview-Rd-Bellingham-WA-98226","listing_id":252435155,"address":"557 W Bakerview Rd, Bellingham, WA 98226"},{"url":"http://localhost:8000/listings/590/","latitude":49.3234,"longitude":-123.121,"neighbourhood":null,"price":2000,"date_listed":1464268661,"bedrooms":2,"bathrooms":1,"description":"2BR/1BA Apartment - 1989 Marine Dr","listing_url":"https://www.padmapper.com/listings/16426749.-2-bedroom-1-bathroom-Apartment-at-1989-Marine-Dr-North-Vancouver-BC-V7P","listing_id":252445015,"address":"1989 Marine Dr, North Vancouver, BC V7P"},{"url":"http://localhost:8000/listings/15/","latitude":49.1926,"longitude":-122.807,"neighbourhood":null,"price":923,"date_listed":1464268667,"bedrooms":1,"bathrooms":1,"description":"1BR/1BA Apartment - 10463 150 St","listing_url":"https://www.padmapper.com/listings/16426762.-1-bedroom-1-bathroom-Apartment-at-10463-150-St-Surrey-BC-V3R-4B3","listing_id":252445028,"address":"10463 150 St, Surrey, BC V3R 4B3"},{"url":"http://localhost:8000/listings/452/","latitude":48.7756,"longitude":-122.454,"neighbourhood":null,"price":840,"date_listed":1464377465,"bedrooms":2,"bathrooms":1,"description":"2BR/1BA Apartment - 3353 Racine St","listing_url":"https://www.padmapper.com/listings/16446114.-2-bedroom-1-bathroom-Apartment-at-3353-Racine-St-Bellingham-WA-98226","listing_id":252481674,"address":"3353 Racine St, Bellingham, WA 98226"},{"url":"http://localhost:8000/listings/454/","latitude":48.7756,"longitude":-122.454,"neighbourhood":null,"price":655,"date_listed":1464377465,"bedrooms":1,"bathrooms":1,"description":"1BR/1BA Apartment - 3353 Racine St","listing_url":"https://www.padmapper.com/listings/16446113.-1-bedroom-1-bathroom-Apartment-at-3353-Racine-St-Bellingham-WA-98226","listing_id":252481673,"address":"3353 Racine St, Bellingham, WA 98226"},{"url":"http://localhost:8000/listings/364/","latitude":48.8089,"longitude":-122.5,"neighbourhood":null,"price":1096,"date_listed":1464377523,"bedrooms":4,"bathrooms":2,"description":"4BR/2BA Apartment - 355 Meadowbrook Ct","listing_url":"https://www.padmapper.com/listings/16446301.-4-bedroom-2-bathroom-Apartment-at-355-Meadowbrook-Ct-Bellingham-WA-98226","listing_id":252481864,"address":"355 Meadowbrook Ct, Bellingham, WA 98226"},{"url":"http://localhost:8000/listings/477/","latitude":48.8089,"longitude":-122.5,"neighbourhood":null,"price":986,"date_listed":1464377523,"bedrooms":3,"bathrooms":2,"description":"3BR/2BA Apartment - 355 Meadowbrook Ct","listing_url":"https://www.padmapper.com/listings/16446300.-3-bedroom-2-bathroom-Apartment-at-355-Meadowbrook-Ct-Bellingham-WA-98226","listing_id":252481863,"address":"355 Meadowbrook Ct, Bellingham, WA 98226"},{"url":"http://localhost:8000/listings/85/","latitude":49.1654,"longitude":-122.664,"neighbourhood":null,"price":1660,"date_listed":1464782413,"bedrooms":2,"bathrooms":2,"description":"2BR/2BA Apartment - 20159 88 Ave","listing_url":"https://www.padmapper.com/listings/16489292.-2-bedroom-2-bathroom-Apartment-at-20159-88-Ave-Langley-BC-V1M-0A4","listing_id":252594057,"address":"20159 88 Ave, Langley, BC V1M 0A4"},{"url":"http://localhost:8000/listings/376/","latitude":48.7878,"longitude":-122.505,"neighbourhood":null,"price":780,"date_listed":1465074861,"bedrooms":1,"bathrooms":1,"description":"1BR/1BA Apartment - 4018 Northwest Ave","listing_url":"https://www.padmapper.com/listings/16592518.-1-bedroom-1-bathroom-Apartment-at-4018-Northwest-Ave-Bellingham-WA-98226","listing_id":252763121,"address":"4018 Northwest Ave, Bellingham, WA 98226"},{"url":"http://localhost:8000/listings/325/","latitude":48.7878,"longitude":-122.505,"neighbourhood":null,"price":715,"date_listed":1465074862,"bedrooms":0,"bathrooms":1,"description":"0BR/1BA Apartment - 4018 Northwest Ave","listing_url":"https://www.padmapper.com/listings/16592522.-0-bedroom-1-bathroom-Apartment-at-4018-Northwest-Ave-Bellingham-WA-98226","listing_id":252763125,"address":"4018 Northwest Ave, Bellingham, WA 98226"},{"url":"http://localhost:8000/listings/380/","latitude":48.7878,"longitude":-122.505,"neighbourhood":null,"price":980,"date_listed":1465074862,"bedrooms":2,"bathrooms":2,"description":"2BR/2BA Apartment - 4018 Northwest Ave","listing_url":"https://www.padmapper.com/listings/16592521.-2-bedroom-2-bathroom-Apartment-at-4018-Northwest-Ave-Bellingham-WA-98226","listing_id":252763124,"address":"4018 Northwest Ave, Bellingham, WA 98226"},{"url":"http://localhost:8000/listings/362/","latitude":48.7514,"longitude":-122.473,"neighbourhood":null,"price":701,"date_listed":1465084793,"bedrooms":1,"bathrooms":1,"description":"1BR/1BA Apartment - 1505 N State St","listing_url":"https://www.padmapper.com/listings/16607227.-1-bedroom-1-bathroom-Apartment-at-1505-N-State-St-Bellingham-WA-98225","listing_id":252777921,"address":"1505 N State St, Bellingham, WA 98225"},{"url":"http://localhost:8000/listings/341/","latitude":48.7514,"longitude":-122.473,"neighbourhood":null,"price":841,"date_listed":1465084794,"bedrooms":2,"bathrooms":1,"description":"2BR/1BA Apartment - 1505 N State St","listing_url":"https://www.padmapper.com/listings/16607228.-2-bedroom-1-bathroom-Apartment-at-1505-N-State-St-Bellingham-WA-98225","listing_id":252777922,"address":"1505 N State St, Bellingham, WA 98225"},{"url":"http://localhost:8000/listings/413/","latitude":49.0972,"longitude":-122.66,"neighbourhood":null,"price":1550,"date_listed":1465085850,"bedrooms":3,"bathrooms":1,"description":"3BR/1BA Apartment - 5210 203 St","listing_url":"https://www.padmapper.com/listings/16609345.-3-bedroom-1-bathroom-Apartment-at-5210-203-St-Langley-BC-V3A-5C5","listing_id":252780039,"address":"5210 203 St, Langley, BC V3A 5C5"},{"url":"http://localhost:8000/listings/63/","latitude":49.2327,"longitude":-123.009,"neighbourhood":null,"price":1610,"date_listed":1465086108,"bedrooms":2,"bathrooms":2,"description":"2BR/1.5BA Apartment - 4288 Grange St","listing_url":"https://www.padmapper.com/listings/16609993.-2-bedroom-1-5-bathroom-Apartment-at-4288-Grange-St-Burnaby-BC-V5H-1P2","listing_id":252780687,"address":"4288 Grange St, Burnaby, BC V5H 1P2"},{"url":"http://localhost:8000/listings/402/","latitude":49.174,"longitude":-123.943,"neighbourhood":null,"price":750,"date_listed":1465509486,"bedrooms":1,"bathrooms":1,"description":"1BR/1BA Apartment - 130 Stewart Ave","listing_url":"https://www.padmapper.com/listings/16609874.-1-bedroom-1-bathroom-Apartment-at-130-Stewart-Ave-Nanaimo-BC-V9S-4B9","listing_id":252918667,"address":"130 Stewart Ave, Nanaimo, BC V9S 4B9"},{"url":"http://localhost:8000/listings/531/","latitude":48.7615,"longitude":-122.455,"neighbourhood":null,"price":725,"date_listed":1465534693,"bedrooms":2,"bathrooms":1,"description":"2BR/1BA Apartment - 1416 Texas St","listing_url":"https://www.padmapper.com/listings/15889358.-2-bedroom-1-bathroom-Apartment-at-1416-Texas-St-Bellingham-WA-98229","listing_id":252924787,"address":"1416 Texas St, Bellingham, WA 98229"},{"url":"http://localhost:8000/listings/502/","latitude":48.7577,"longitude":-122.489,"neighbourhood":null,"price":645,"date_listed":1465535788,"bedrooms":0,"bathrooms":1,"description":"0BR/1BA Apartment - 1411 I St","listing_url":"https://www.padmapper.com/listings/16420926.-0-bedroom-1-bathroom-Apartment-at-1411-I-St-Bellingham-WA-98225","listing_id":252925020,"address":"1411 I St, Bellingham, WA 98225"},{"url":"http://localhost:8000/listings/409/","latitude":49.2733,"longitude":-123.127,"neighbourhood":null,"price":3000,"date_listed":1465621048,"bedrooms":1,"bathrooms":1,"description":"1BR/1BA Apartment - 431 Pacific St","listing_url":"https://www.padmapper.com/listings/16679946.-1-bedroom-1-bathroom-Apartment-at-431-Pacific-St-Vancouver-BC-V6Z","listing_id":252952915,"address":"431 Pacific St, Vancouver, BC V6Z"},{"url":"http://localhost:8000/listings/393/","latitude":49.2712,"longitude":-123.127,"neighbourhood":null,"price":6000,"date_listed":1465707614,"bedrooms":2,"bathrooms":2,"description":"2BR/2BA Condo - 1560 Homer Mews","listing_url":"https://www.padmapper.com/listings/16750262.-2-bedroom-2-bathroom-Condo-at-1560-Homer-Mews-Vancouver-BC-V6Z-0A5","listing_id":252986836,"address":"1560 Homer Mews, Vancouver, BC V6Z 0A5"},{"url":"http://localhost:8000/listings/597/","latitude":49.365,"longitude":-123.1,"neighbourhood":null,"price":7500,"date_listed":1465741393,"bedrooms":7,"bathrooms":5,"description":"7BR/5BA House - 5550 Huckleberry Ln","listing_url":"https://www.padmapper.com/listings/16763865.-7-bedroom-5-bathroom-House-at-5550-Huckleberry-Ln-North-Vancouver-BC-V7R-4N8","listing_id":253004118,"address":"5550 Huckleberry Ln, North Vancouver, BC V7R 4N8"},{"url":"http://localhost:8000/listings/571/","latitude":48.7724,"longitude":-122.498,"neighbourhood":null,"price":2280,"date_listed":1465759458,"bedrooms":3,"bathrooms":3,"description":"3BR/2.5BA House - 2516 Cedarwood Ave","listing_url":"https://www.padmapper.com/listings/16686427.-3-bedroom-2-5-bathroom-House-at-2516-Cedarwood-Ave-Bellingham-WA-98225","listing_id":253010215,"address":"2516 Cedarwood Ave, Bellingham, WA 98225"},{"url":"http://localhost:8000/listings/14/","latitude":48.7675,"longitude":-122.417,"neighbourhood":null,"price":1900,"date_listed":1465793969,"bedrooms":6,"bathrooms":3,"description":"6BR/3BA House - 4028 Academy St","listing_url":"https://www.padmapper.com/listings/15877869.-6-bedroom-3-bathroom-House-at-4028-Academy-St-Bellingham-WA-98226","listing_id":253014707,"address":"4028 Academy St, Bellingham, WA 98226"},{"url":"http://localhost:8000/listings/561/","latitude":48.7578,"longitude":-122.487,"neighbourhood":null,"price":1000,"date_listed":1465796341,"bedrooms":2,"bathrooms":1,"description":"2BR/1BA Apartment - 1591 H St","listing_url":"https://www.padmapper.com/listings/16375664.-2-bedroom-1-bathroom-Apartment-at-1591-H-St-Bellingham-WA-98225","listing_id":253015318,"address":"1591 H St, Bellingham, WA 98225"},{"url":"http://localhost:8000/listings/379/","latitude":49.2783,"longitude":-123.127,"neighbourhood":null,"price":2375,"date_listed":1465838860,"bedrooms":1,"bathrooms":1,"description":"1BR/1BA Apartment - 1189 Howe St","listing_url":"https://www.padmapper.com/listings/16702605.-1-bedroom-1-bathroom-Apartment-at-1189-Howe-St-Vancouver-BC-V6Z-2X4","listing_id":253025483,"address":"1189 Howe St, Vancouver, BC V6Z 2X4"},{"url":"http://localhost:8000/listings/36/","latitude":48.7619,"longitude":-122.448,"neighbourhood":null,"price":1550,"date_listed":1465967577,"bedrooms":3,"bathrooms":3,"description":"3BR/2.5BA Apartment - 2404 Verona St","listing_url":"https://www.padmapper.com/listings/16117725.-3-bedroom-2-5-bathroom-Apartment-at-2404-Verona-St-Bellingham-WA-98229","listing_id":253052645,"address":"2404 Verona St, Bellingham, WA 98229"},{"url":"http://localhost:8000/listings/53/","latitude":48.7902,"longitude":-122.479,"neighbourhood":null,"price":1350,"date_listed":1466053663,"bedrooms":2,"bathrooms":2,"description":"2BR/2BA Apartment - 4101 Deemer Rd","listing_url":"https://www.padmapper.com/listings/16160679.-2-bedroom-2-bathroom-Apartment-at-4101-Deemer-Rd-Bellingham-WA-98226","listing_id":253096599,"address":"4101 Deemer Rd, Bellingham, WA 98226"},{"url":"http://localhost:8000/listings/435/","latitude":48.7902,"longitude":-122.454,"neighbourhood":null,"price":1450,"date_listed":1466057037,"bedrooms":2,"bathrooms":2,"description":"2BR/1.5BA Apartment - 4101 Stonecrest Ct","listing_url":"https://www.padmapper.com/listings/16817088.-2-bedroom-1-5-bathroom-Apartment-at-4101-Stonecrest-Ct-Bellingham-WA-98226","listing_id":253098619,"address":"4101 Stonecrest Ct, Bellingham, WA 98226"},{"url":"http://localhost:8000/listings/519/","latitude":49.3606,"longitude":-123.132,"neighbourhood":null,"price":3950,"date_listed":1466070748,"bedrooms":5,"bathrooms":4,"description":"5BR/4BA Apartment - 567 Craigmohr Dr","listing_url":"https://www.padmapper.com/listings/16221584.-5-bedroom-4-bathroom-Apartment-at-567-Craigmohr-Dr-West-Vancouver-BC-V7S-1X1","listing_id":253102668,"address":"567 Craigmohr Dr, West Vancouver, BC V7S 1X1"},{"url":"http://localhost:8000/listings/478/","latitude":48.8084,"longitude":-122.499,"neighbourhood":null,"price":758,"date_listed":1466096072,"bedrooms":1,"bathrooms":1,"description":"1BR/1BA Apartment - 4625 Cordata Pkwy","listing_url":"https://www.padmapper.com/listings/16836415.-1-bedroom-1-bathroom-Apartment-at-4625-Cordata-Pkwy-Bellingham-WA-98226","listing_id":253127525,"address":"4625 Cordata Pkwy, Bellingham, WA 98226"},{"url":"http://localhost:8000/listings/445/","latitude":48.8084,"longitude":-122.499,"neighbourhood":null,"price":907,"date_listed":1466096074,"bedrooms":2,"bathrooms":2,"description":"2BR/2BA Apartment - 4625 Cordata Pkwy","listing_url":"https://www.padmapper.com/listings/16836423.-2-bedroom-2-bathroom-Apartment-at-4625-Cordata-Pkwy-Bellingham-WA-98226","listing_id":253127533,"address":"4625 Cordata Pkwy, Bellingham, WA 98226"},{"url":"http://localhost:8000/listings/562/","latitude":48.9173,"longitude":-122.34,"neighbourhood":null,"price":450,"date_listed":1466127184,"bedrooms":0,"bathrooms":0,"description":"0BR/0BA Apartment - 205 Reeds Ln","listing_url":"https://www.padmapper.com/listings/14116561.-0-bedroom-0-bathroom-Apartment-at-205-Reeds-Ln-Everson-WA-98247","listing_id":253158424,"address":"205 Reeds Ln, Everson, WA 98247"},{"url":"http://localhost:8000/listings/424/","latitude":48.7323,"longitude":-122.499,"neighbourhood":null,"price":1475,"date_listed":1466143742,"bedrooms":1,"bathrooms":1,"description":"1BR/1BA House - 407 S State St","listing_url":"https://www.padmapper.com/listings/16860741.-1-bedroom-1-bathroom-House-at-407-S-State-St-Bellingham-WA-98225","listing_id":253161804,"address":"407 S State St, Bellingham, WA 98225"},{"url":"http://localhost:8000/listings/23/","latitude":48.7215,"longitude":-122.483,"neighbourhood":null,"price":2250,"date_listed":1466157295,"bedrooms":4,"bathrooms":2,"description":"4BR/2BA Apartment - 1122 27th St","listing_url":"https://www.padmapper.com/listings/15668649.-4-bedroom-2-bathroom-Apartment-at-1122-27th-St-Bellingham-WA-98225","listing_id":253165408,"address":"1122 27th St, Bellingham, WA 98225"},{"url":"http://localhost:8000/listings/428/","latitude":48.7261,"longitude":-122.471,"neighbourhood":null,"price":499,"date_listed":1466158672,"bedrooms":0,"bathrooms":1,"description":"0BR/1BA Apartment - 801 Samish Way","listing_url":"https://www.padmapper.com/listings/16327337.-0-bedroom-1-bathroom-Apartment-at-801-Samish-Way-Bellingham-WA-98229","listing_id":253170054,"address":"801 Samish Way, Bellingham, WA 98229"},{"url":"http://localhost:8000/listings/44/","latitude":49.3175,"longitude":-123.084,"neighbourhood":null,"price":1350,"date_listed":1466158675,"bedrooms":2,"bathrooms":1,"description":"2BR/1BA Apartment - 347 W 4th St","listing_url":"https://www.padmapper.com/listings/16327357.-2-bedroom-1-bathroom-Apartment-at-347-W-4th-St-North-Vancouver-BC-V7M-1J2","listing_id":253170063,"address":"347 W 4th St, North Vancouver, BC V7M 1J2"},{"url":"http://localhost:8000/listings/544/","latitude":49.3274,"longitude":-123.124,"neighbourhood":null,"price":3250,"date_listed":1466159302,"bedrooms":3,"bathrooms":2,"description":"3BR/2BA Apartment - 1901 Glenaire Dr","listing_url":"https://www.padmapper.com/listings/16774523.-3-bedroom-2-bathroom-Apartment-at-1901-Glenaire-Dr-North-Vancouver-BC-V7P-1X9","listing_id":253172318,"address":"1901 Glenaire Dr, North Vancouver, BC V7P 1X9"},{"url":"http://localhost:8000/listings/12/","latitude":49.3337,"longitude":-123.062,"neighbourhood":null,"price":5000,"date_listed":1466179076,"bedrooms":1,"bathrooms":1,"description":"1BR/1BA Apartment - 420 Tempe Crescent","listing_url":"https://www.padmapper.com/listings/15942564.-1-bedroom-1-bathroom-Apartment-at-420-Tempe-Crescent-North-Vancouver-BC-V7N-1E6","listing_id":253197846,"address":"420 Tempe Crescent, North Vancouver, BC V7N 1E6"},{"url":"http://localhost:8000/listings/442/","latitude":48.7762,"longitude":-122.492,"neighbourhood":null,"price":1020,"date_listed":1466180777,"bedrooms":2,"bathrooms":1,"description":"2BR/1BA Apartment - 1470 Birchwood Ave","listing_url":"https://www.padmapper.com/listings/16881758.-2-bedroom-1-bathroom-Apartment-at-1470-Birchwood-Ave-Bellingham-WA-98225","listing_id":253200986,"address":"1470 Birchwood Ave, Bellingham, WA 98225"},{"url":"http://localhost:8000/listings/389/","latitude":49.2856,"longitude":-123.124,"neighbourhood":null,"price":6250,"date_listed":1466199419,"bedrooms":2,"bathrooms":2,"description":"2BR/2BA Condo - 1111 Alberni Street","listing_url":"https://www.padmapper.com/listings/16884081.-2-bedroom-2-bathroom-Condo-at-1111-Alberni-Street-Vancouver-BC-V6E-0A8","listing_id":253204482,"address":"1111 Alberni Street, Vancouver, BC V6E 0A8"},{"url":"http://localhost:8000/listings/401/","latitude":49.252104437478,"longitude":-123.14369556252,"neighbourhood":"Shaughnessy","price":6500,"date_listed":1466211414,"bedrooms":6,"bathrooms":4,"description":"6BR/4BA House - Marguerite Street","listing_url":"https://www.padmapper.com/listings/16885956.-6-bedroom-4-bathroom-House-at-Marguerite-Street-Vancouver-BC-V6J-4E8","listing_id":253207618,"address":"Marguerite Street, Vancouver, BC V6J 4E8"},{"url":"http://localhost:8000/listings/403/","latitude":49.1853,"longitude":-123.12056946039,"neighbourhood":null,"price":4800,"date_listed":1466211659,"bedrooms":6,"bathrooms":4,"description":"6BR/4BA House - Cunningham Drive","listing_url":"https://www.padmapper.com/listings/16886295.-6-bedroom-4-bathroom-House-at-Cunningham-Drive-Richmond-BC-V6X-3N5","listing_id":253207972,"address":"Cunningham Drive, Richmond, BC V6X 3N5"},{"url":"http://localhost:8000/listings/569/","latitude":48.7314,"longitude":-122.476,"neighbourhood":null,"price":725,"date_listed":1466224185,"bedrooms":1,"bathrooms":1,"description":"1BR/1BA Apartment - 3120 Bill McDonald Pkwy","listing_url":"https://www.padmapper.com/listings/16495473.-1-bedroom-1-bathroom-Apartment-at-3120-Bill-McDonald-Pkwy-Bellingham-WA-98225","listing_id":253210348,"address":"3120 Bill McDonald Pkwy, Bellingham, WA 98225"},{"url":"http://localhost:8000/listings/404/","latitude":49.252804437478,"longitude":-123.16930443748,"neighbourhood":"Arbutus-Ridge","price":6300,"date_listed":1466226591,"bedrooms":4,"bathrooms":3,"description":"4BR/3BA House - W 22nd Ave","listing_url":"https://www.padmapper.com/listings/16888196.-4-bedroom-3-bathroom-House-at-W-22nd-Ave-Vancouver-BC-V6L-1M6","listing_id":253210830,"address":"W 22nd Ave, Vancouver, BC V6L 1M6"},{"url":"http://localhost:8000/listings/387/","latitude":49.2914,"longitude":-123.129,"neighbourhood":null,"price":5500,"date_listed":1466226664,"bedrooms":2,"bathrooms":2,"description":"2BR/2BA Condo - 560 Cardero St","listing_url":"https://www.padmapper.com/listings/16888198.-2-bedroom-2-bathroom-Condo-at-560-Cardero-St-Vancouver-BC-V6G","listing_id":253210833,"address":"560 Cardero St, Vancouver, BC V6G"},{"url":"http://localhost:8000/listings/31/","latitude":48.8668,"longitude":-122.604,"neighbourhood":null,"price":1525,"date_listed":1466229539,"bedrooms":4,"bathrooms":3,"description":"4BR/2.5BA House - 6195 Hamilton Ave","listing_url":"https://www.padmapper.com/listings/16708006.-4-bedroom-2-5-bathroom-House-at-6195-Hamilton-Ave-Ferndale-WA-98248","listing_id":253211316,"address":"6195 Hamilton Ave, Ferndale, WA 98248"},{"url":"http://localhost:8000/listings/415/","latitude":49.241764760376,"longitude":-123.18939776673,"neighbourhood":"Dunbar-Southlands","price":6200,"date_listed":1466231133,"bedrooms":6,"bathrooms":5,"description":"6BR/5BA House - West 34th Avenue","listing_url":"https://www.padmapper.com/listings/16889543.-6-bedroom-5-bathroom-House-at-West-34th-Avenue-Vancouver-BC-V6N-2L2","listing_id":253212653,"address":"West 34th Avenue, Vancouver, BC V6N 2L2"},{"url":"http://localhost:8000/listings/372/","latitude":49.2896,"longitude":-123.122,"neighbourhood":null,"price":6500,"date_listed":1466231187,"bedrooms":3,"bathrooms":2,"description":"3BR/2BA Condo - 1233 West Cordova Street","listing_url":"https://www.padmapper.com/listings/16889752.-3-bedroom-2-bathroom-Condo-at-1233-West-Cordova-Street-Vancouver-BC-V6C-3R4","listing_id":253212882,"address":"1233 West Cordova Street, Vancouver, BC V6C 3R4"},{"url":"http://localhost:8000/listings/553/","latitude":48.9556,"longitude":-122.451,"neighbourhood":null,"price":1400,"date_listed":1466401040,"bedrooms":3,"bathrooms":2,"description":"3BR/2BA House - 1400 Woodfield Place","listing_url":"https://www.padmapper.com/listings/16917493.-3-bedroom-2-bathroom-House-at-1400-Woodfield-Place-Lynden-WA-98264","listing_id":253254578,"address":"1400 Woodfield Place, Lynden, WA 98264"},{"url":"http://localhost:8000/listings/373/","latitude":49.3337,"longitude":-123.178,"neighbourhood":null,"price":4500,"date_listed":1466482606,"bedrooms":3,"bathrooms":4,"description":"3BR/3.5BA House - 2372 Marine Drive","listing_url":"https://www.padmapper.com/listings/16927408.-3-bedroom-3-5-bathroom-House-at-2372-Marine-Drive-West-Vancouver-BC-V7V-1K8","listing_id":253268774,"address":"2372 Marine Drive, West Vancouver, BC V7V 1K8"},{"url":"http://localhost:8000/listings/405/","latitude":49.285,"longitude":-123.123,"neighbourhood":null,"price":2200,"date_listed":1466482930,"bedrooms":1,"bathrooms":1,"description":"1BR/1BA Apartment - 1060 Alberni Street","listing_url":"https://www.padmapper.com/listings/16927425.-1-bedroom-1-bathroom-Apartment-at-1060-Alberni-Street-Vancouver-BC-V6E-4K2","listing_id":253268850,"address":"1060 Alberni Street, Vancouver, BC V6E 4K2"},{"url":"http://localhost:8000/listings/123/","latitude":49.2964534,"longitude":-124.32556106039,"neighbourhood":null,"price":880,"date_listed":1466521449,"bedrooms":1,"bathrooms":0,"description":"cozy double room in house on ahill","listing_url":"https://www.airbnb.com/rooms/2372546?checkin=2016-08-01&checkout=2016-08-31&af=3483444","listing_id":253285812,"address":"Little Mountain Rd, Parksville, BC V9P"},{"url":"http://localhost:8000/listings/157/","latitude":48.777732233267,"longitude":-123.73277876038,"neighbourhood":null,"price":1252,"date_listed":1466521449,"bedrooms":1,"bathrooms":0,"description":"West Coast Cabin, New covered outdoor cedar shower","listing_url":"https://www.airbnb.com/rooms/3716892?checkin=2016-08-01&checkout=2016-08-31&af=3483444","listing_id":253285817,"address":"Gibbins Rd, Duncan, BC V9L 1G8"},{"url":"http://localhost:8000/listings/207/","latitude":49.190248166733,"longitude":-123.96502393962,"neighbourhood":null,"price":803,"date_listed":1466521450,"bedrooms":1,"bathrooms":0,"description":" ","listing_url":"https://www.airbnb.com/rooms/5889756?checkin=2016-08-01&checkout=2016-08-31&af=3483444","listing_id":253285825,"address":"Island Hwy, Nanaimo, BC V9S"},{"url":"http://localhost:8000/listings/130/","latitude":48.995170060376,"longitude":-123.83584926673,"neighbourhood":null,"price":1083,"date_listed":1466521453,"bedrooms":1,"bathrooms":0,"description":"Master suite with private bath","listing_url":"https://www.airbnb.com/rooms/12951717?checkin=2016-08-01&checkout=2016-08-31&af=3483444","listing_id":253285837,"address":"Walkem Rd, Ladysmith, BC V9G 1P7"},{"url":"http://localhost:8000/listings/134/","latitude":49.353188566733,"longitude":-124.36332456038,"neighbourhood":null,"price":1521,"date_listed":1466521455,"bedrooms":1,"bathrooms":0,"description":"Columbia Beach at Parksville and the OCEAN!!","listing_url":"https://www.airbnb.com/rooms/13626451?checkin=2016-08-01&checkout=2016-08-31&af=3483444","listing_id":253285855,"address":"Admiral Tryon Blvd, Parksville, BC V9P 1Y1"},{"url":"http://localhost:8000/listings/197/","latitude":49.28569533961,"longitude":-124.2686332,"neighbourhood":null,"price":1645,"date_listed":1466521455,"bedrooms":1,"bathrooms":0,"description":"Mountainview 125 Acre Horse Ranch","listing_url":"https://www.airbnb.com/rooms/7922332?checkin=2016-08-01&checkout=2016-08-31&af=3483444","listing_id":253285856,"address":"Paradise Pl, Nanoose Bay, BC V9P 9A4"},{"url":"http://localhost:8000/listings/277/","latitude":48.973696237478,"longitude":-123.79663676252,"neighbourhood":null,"price":1061,"date_listed":1466521456,"bedrooms":1,"bathrooms":0,"description":"Cancelled listing","listing_url":"https://www.airbnb.com/rooms/7117180?checkin=2016-08-01&checkout=2016-08-31&af=3483444","listing_id":253285858,"address":"BC-1, Ladysmith, BC V9G"},{"url":"http://localhost:8000/listings/139/","latitude":48.923494239624,"longitude":-123.72099776673,"neighbourhood":null,"price":1600,"date_listed":1466521457,"bedrooms":1,"bathrooms":0,"description":"Bedroom with Ocean view.","listing_url":"https://www.airbnb.com/rooms/7388105?checkin=2016-08-01&checkout=2016-08-31&af=3483444","listing_id":253285867,"address":"Chemainus Rd, Chemainus, BC V0R 1K3"},{"url":"http://localhost:8000/listings/154/","latitude":48.924177966733,"longitude":-123.72136336038,"neighbourhood":null,"price":1984,"date_listed":1466521457,"bedrooms":1,"bathrooms":0,"description":"Ocean view room","listing_url":"https://www.airbnb.com/rooms/11851720?checkin=2016-08-01&checkout=2016-08-31&af=3483444","listing_id":253285871,"address":"Chemainus Rd, Chemainus, BC V0R 1K0"},{"url":"http://localhost:8000/listings/264/","latitude":49.347696033267,"longitude":-124.44873763962,"neighbourhood":null,"price":2681,"date_listed":1466521461,"bedrooms":2,"bathrooms":0,"description":"Qualicum Beach Rental...Furnished","listing_url":"https://www.airbnb.com/rooms/1565656?checkin=2016-08-01&checkout=2016-08-31&af=3483444","listing_id":253285895,"address":"Jones St, Qualicum Beach, BC V9K 1H1"},{"url":"http://localhost:8000/listings/219/","latitude":49.162469662522,"longitude":-123.94131503748,"neighbourhood":null,"price":2834,"date_listed":1466521462,"bedrooms":1,"bathrooms":0,"description":"Cute Bungalow home - great location","listing_url":"https://www.airbnb.com/rooms/10971437?checkin=2016-08-01&checkout=2016-08-31&af=3483444","listing_id":253285898,"address":"Selby St, Nanaimo, BC V9R 2R6"},{"url":"http://localhost:8000/listings/267/","latitude":48.77065526039,"longitude":-123.842321,"neighbourhood":null,"price":3507,"date_listed":1466521465,"bedrooms":1,"bathrooms":0,"description":"HippyBus w/2meals@Yoga Sanctuary","listing_url":"https://www.airbnb.com/rooms/6107711?checkin=2016-08-01&checkout=2016-08-31&af=3483444","listing_id":253285928,"address":"Culverton Rd, Duncan, BC V9L 6H4"},{"url":"http://localhost:8000/listings/167/","latitude":49.397614160376,"longitude":-123.50617533327,"neighbourhood":null,"price":4317,"date_listed":1466521467,"bedrooms":2,"bathrooms":0,"description":"Charming House in the Bay","listing_url":"https://www.airbnb.com/rooms/9975582?checkin=2016-08-01&checkout=2016-08-31&af=3483444","listing_id":253285939,"address":"Bay Rd, Gibsons, BC V0N 1V8"},{"url":"http://localhost:8000/listings/200/","latitude":49.3714087,"longitude":-123.33347846039,"neighbourhood":null,"price":4658,"date_listed":1466521467,"bedrooms":0,"bathrooms":0,"description":"Sunrise Suite","listing_url":"https://www.airbnb.com/rooms/17583?checkin=2016-08-01&checkout=2016-08-31&af=3483444","listing_id":253285940,"address":"Taylor Rd, Bowen Island, BC V0N 1G1"},{"url":"http://localhost:8000/listings/221/","latitude":49.159774762522,"longitude":-123.74258033748,"neighbourhood":null,"price":6185,"date_listed":1466521473,"bedrooms":4,"bathrooms":0,"description":"5-ACRE EXECUTIVE OCEANFRONT HOME","listing_url":"https://www.airbnb.com/rooms/11376349?checkin=2016-08-01&checkout=2016-08-31&af=3483444","listing_id":253285946,"address":"Jolly Brothers Rd, Gabriola, BC V0R 1X7"},{"url":"http://localhost:8000/listings/298/","latitude":49.455791037478,"longitude":-123.23291506252,"neighbourhood":null,"price":7631,"date_listed":1466521478,"bedrooms":1,"bathrooms":0,"description":"QK Lions Bay - Ocean View Bedroom","listing_url":"https://www.airbnb.com/rooms/9524644?checkin=2016-08-01&checkout=2016-08-31&af=3483444","listing_id":253285954,"address":"Oceanview Rd, Lions Bay, BC V0N"},{"url":"http://localhost:8000/listings/162/","latitude":49.174493139624,"longitude":-123.12700983327,"neighbourhood":null,"price":5157,"date_listed":1466521482,"bedrooms":2,"bathrooms":0,"description":"richmond convenient luxury Apt","listing_url":"https://www.airbnb.com/rooms/11967101?checkin=2016-08-01&checkout=2016-08-31&af=3483444","listing_id":253285957,"address":"Lansdowne Rd, Richmond, BC V6X 3X7"},{"url":"http://localhost:8000/listings/165/","latitude":49.278366962522,"longitude":-123.10938756252,"neighbourhood":"Downtown","price":6718,"date_listed":1466521482,"bedrooms":2,"bathrooms":0,"description":"D12 -   2 BR Downtown In Style","listing_url":"https://www.airbnb.com/rooms/10083?checkin=2016-08-01&checkout=2016-08-31&af=3483444","listing_id":253285958,"address":"Expo Blvd, Vancouver, BC V6B 1V4"},{"url":"http://localhost:8000/listings/282/","latitude":49.368859533267,"longitude":-123.33403653962,"neighbourhood":null,"price":8441,"date_listed":1466521482,"bedrooms":0,"bathrooms":0,"description":"Oceanfront near events","listing_url":"https://www.airbnb.com/rooms/17361?checkin=2016-08-01&checkout=2016-08-31&af=3483444","listing_id":253285959,"address":"Taylor Rd, Bowen Island, BC V0N 1G1"},{"url":"http://localhost:8000/listings/247/","latitude":49.278222062522,"longitude":-123.11843203748,"neighbourhood":"Downtown","price":5840,"date_listed":1466521483,"bedrooms":2,"bathrooms":0,"description":"* Beautiful + Trendy 2 Bedroom Central Vancouver *","listing_url":"https://www.airbnb.com/rooms/3594666?checkin=2016-08-01&checkout=2016-08-31&af=3483444","listing_id":253285962,"address":"Homer St, Vancouver, BC V6B 0H7"},{"url":"http://localhost:8000/listings/193/","latitude":49.039248762522,"longitude":-122.32821923748,"neighbourhood":null,"price":706,"date_listed":1466523406,"bedrooms":1,"bathrooms":0,"description":"Cozy House in Abbotsford","listing_url":"https://www.airbnb.com/rooms/8933332?checkin=2016-08-01&checkout=2016-08-31&af=3483444","listing_id":253289530,"address":"Topaz St, Abbotsford, BC V2T 3W6"},{"url":"http://localhost:8000/listings/185/","latitude":49.005148766733,"longitude":-122.17009276038,"neighbourhood":null,"price":1371,"date_listed":1466523407,"bedrooms":1,"bathrooms":0,"description":"Comfortable bedroom in farm house","listing_url":"https://www.airbnb.com/rooms/10836203?checkin=2016-08-01&checkout=2016-08-31&af=3483444","listing_id":253289535,"address":"Barker Rd, Abbotsford, BC V3G 1S5"},{"url":"http://localhost:8000/listings/223/","latitude":49.035153560376,"longitude":-122.75634636673,"neighbourhood":null,"price":1110,"date_listed":1466523407,"bedrooms":1,"bathrooms":0,"description":"5 min to White Rock Pier","listing_url":"https://www.airbnb.com/rooms/12641796?checkin=2016-08-01&checkout=2016-08-31&af=3483444","listing_id":253289533,"address":"18 Ave, Surrey, BC V3S 9X3"},{"url":"http://localhost:8000/listings/270/","latitude":48.71872953961,"longitude":-122.2070503,"neighbourhood":null,"price":1359,"date_listed":1466523407,"bedrooms":1,"bathrooms":0,"description":"country cottage large room for two","listing_url":"https://www.airbnb.com/rooms/5148334?checkin=2016-08-01&checkout=2016-08-31&af=3483444","listing_id":253289536,"address":"Turkington Rd, Acme, WA 98220"},{"url":"http://localhost:8000/listings/156/","latitude":49.107661033267,"longitude":-122.82104603962,"neighbourhood":null,"price":2038,"date_listed":1466523409,"bedrooms":1,"bathrooms":0,"description":"Spacious, Modern Room","listing_url":"https://www.airbnb.com/rooms/8690345?checkin=2016-08-01&checkout=2016-08-31&af=3483444","listing_id":253289543,"address":"58 Ave, Surrey, BC V3S 1Y3"},{"url":"http://localhost:8000/listings/196/","latitude":49.331016239624,"longitude":-123.08732876673,"neighbourhood":null,"price":2961,"date_listed":1466523412,"bedrooms":1,"bathrooms":0,"description":"reliable female only","listing_url":"https://www.airbnb.com/rooms/20153?checkin=2016-08-01&checkout=2016-08-31&af=3483444","listing_id":253289563,"address":"W 24th St, North Vancouver, BC V7M 2E2"},{"url":"http://localhost:8000/listings/244/","latitude":49.228853562522,"longitude":-122.57813143748,"neighbourhood":null,"price":2053,"date_listed":1466523412,"bedrooms":1,"bathrooms":0,"description":"Beautiful 1 Bedroom Private Suite","listing_url":"https://www.airbnb.com/rooms/6768321?checkin=2016-08-01&checkout=2016-08-31&af=3483444","listing_id":253289562,"address":"232 St, Maple Ridge, BC V2X 6T6"},{"url":"http://localhost:8000/listings/212/","latitude":49.161165039624,"longitude":-123.14470773327,"neighbourhood":null,"price":2810,"date_listed":1466523414,"bedrooms":2,"bathrooms":0,"description":"WONDERFUL Budget Cozy 2 BEDRM Unit","listing_url":"https://www.airbnb.com/rooms/13123943?checkin=2016-08-01&checkout=2016-08-31&af=3483444","listing_id":253289573,"address":"Moffatt Rd, Richmond, BC V6Y 3G9"},{"url":"http://localhost:8000/listings/215/","latitude":49.168174962522,"longitude":-123.14124476252,"neighbourhood":null,"price":2202,"date_listed":1466523414,"bedrooms":1,"bathrooms":0,"description":"Brand New Luxury@Richmond Center","listing_url":"https://www.airbnb.com/rooms/8364907?checkin=2016-08-01&checkout=2016-08-31&af=3483444","listing_id":253289574,"address":"Gollner Ave, Richmond, BC V6Y 0H5"},{"url":"http://localhost:8000/listings/179/","latitude":49.274484137478,"longitude":-123.12684746252,"neighbourhood":"Downtown","price":3514,"date_listed":1466523420,"bedrooms":1,"bathrooms":0,"description":"Yaletown 1 Br Condo Monthly Only","listing_url":"https://www.airbnb.com/rooms/1961440?checkin=2016-08-01&checkout=2016-08-31&af=3483444","listing_id":253289602,"address":"Richards St, Vancouver, BC V6B 3G7"},{"url":"http://localhost:8000/listings/208/","latitude":49.266587366733,"longitude":-123.14911563962,"neighbourhood":"Kitsilano","price":3351,"date_listed":1466523420,"bedrooms":1,"bathrooms":0,"description":"Beautiful Vancouver Townhouse","listing_url":"https://www.airbnb.com/rooms/1233101?checkin=2016-08-01&checkout=2016-08-31&af=3483444","listing_id":253289601,"address":"W 6th Ave, Vancouver, BC V6J 1R7"},{"url":"http://localhost:8000/listings/273/","latitude":49.276162339624,"longitude":-122.85427713327,"neighbourhood":null,"price":3135,"date_listed":1466523420,"bedrooms":3,"bathrooms":0,"description":"Beautiful Custom Heritage House","listing_url":"https://www.airbnb.com/rooms/7382307?checkin=2016-08-01&checkout=2016-08-31&af=3483444","listing_id":253289605,"address":"Mary St, Port Moody, BC V3H 2B5"},{"url":"http://localhost:8000/listings/152/","latitude":49.291366637478,"longitude":-123.14196763748,"neighbourhood":"West End","price":3734,"date_listed":1466523421,"bedrooms":1,"bathrooms":0,"description":"English Bay Apt with View","listing_url":"https://www.airbnb.com/rooms/5012655?checkin=2016-08-01&checkout=2016-08-31&af=3483444","listing_id":253289614,"address":"Chilco St, Vancouver, BC V6G 2R6"},{"url":"http://localhost:8000/listings/275/","latitude":49.171018860376,"longitude":-122.76449443327,"neighbourhood":null,"price":4619,"date_listed":1466523423,"bedrooms":1,"bathrooms":0,"description":"Huge bright windows on green belt","listing_url":"https://www.airbnb.com/rooms/12874975?checkin=2016-08-01&checkout=2016-08-31&af=3483444","listing_id":253289619,"address":"92a Ave, Surrey, BC V4N 5N1"},{"url":"http://localhost:8000/listings/172/","latitude":49.279289666733,"longitude":-123.10014706038,"neighbourhood":"Downtown","price":6281,"date_listed":1466523425,"bedrooms":1,"bathrooms":0,"description":"Central, Modern Vancouver Loft","listing_url":"https://www.airbnb.com/rooms/5883673?checkin=2016-08-01&checkout=2016-08-31&af=3483444","listing_id":253289631,"address":"Main St, Vancouver, BC V6A 1Z6"},{"url":"http://localhost:8000/listings/599/","latitude":49.334178766733,"longitude":-123.10540023962,"neighbourhood":null,"price":4200,"date_listed":1466523425,"bedrooms":3,"bathrooms":0,"description":"Log house ex access to skie areas","listing_url":"https://www.airbnb.com/rooms/10059455?checkin=2016-08-01&checkout=2016-08-31&af=3483444","listing_id":253289633,"address":"26th St W, North Vancouver, BC V7R"},{"url":"http://localhost:8000/listings/239/","latitude":49.284729939624,"longitude":-123.11012803327,"neighbourhood":"Downtown","price":4817,"date_listed":1466523426,"bedrooms":0,"bathrooms":0,"description":"Amazing Gastown Loft","listing_url":"https://www.airbnb.com/rooms/4137510?checkin=2016-08-01&checkout=2016-08-31&af=3483444","listing_id":253289637,"address":"Water St, Vancouver, BC V6B 5C6"},{"url":"http://localhost:8000/listings/148/","latitude":49.273944362522,"longitude":-123.11897143748,"neighbourhood":"Downtown","price":4105,"date_listed":1466523428,"bedrooms":1,"bathrooms":0,"description":"Yaletown Vancouver Water View Condo","listing_url":"https://www.airbnb.com/rooms/153404?checkin=2016-08-01&checkout=2016-08-31&af=3483444","listing_id":253289642,"address":"Pacific Blvd, Vancouver, BC V6Z 2Z2"},{"url":"http://localhost:8000/listings/151/","latitude":49.052356337478,"longitude":-122.78482083748,"neighbourhood":null,"price":5282,"date_listed":1466523429,"bedrooms":3,"bathrooms":0,"description":"Modern 3 floors townhouse 1305 Sq F","listing_url":"https://www.airbnb.com/rooms/1988471?checkin=2016-08-01&checkout=2016-08-31&af=3483444","listing_id":253289646,"address":"158 St, Surrey, BC V3S"},{"url":"http://localhost:8000/listings/206/","latitude":49.286798062522,"longitude":-123.12567456252,"neighbourhood":"West End","price":5034,"date_listed":1466523430,"bedrooms":2,"bathrooms":0,"description":"2 brm - Coal Harbour Residence","listing_url":"https://www.airbnb.com/rooms/573614?checkin=2016-08-01&checkout=2016-08-31&af=3483444","listing_id":253289654,"address":"W Georgia St, Vancouver, BC V6E 4R2"},{"url":"http://localhost:8000/listings/256/","latitude":49.170241333267,"longitude":-123.14529316038,"neighbourhood":null,"price":4894,"date_listed":1466523431,"bedrooms":1,"bathrooms":0,"description":" (4","listing_url":"https://www.airbnb.com/rooms/7036991?checkin=2016-08-01&checkout=2016-08-31&af=3483444","listing_id":253289657,"address":"Westminster Hwy, Richmond, BC V6X 1A1"},{"url":"http://localhost:8000/listings/137/","latitude":49.2454809,"longitude":-122.87548743961,"neighbourhood":null,"price":6280,"date_listed":1466523432,"bedrooms":2,"bathrooms":0,"description":"Room where you feel like home","listing_url":"https://www.airbnb.com/rooms/7618880?checkin=2016-08-01&checkout=2016-08-31&af=3483444","listing_id":253289660,"address":"Rochester Ave, Coquitlam, BC V3K 2W3"},{"url":"http://localhost:8000/listings/188/","latitude":49.169934239624,"longitude":-122.59130793327,"neighbourhood":null,"price":1650,"date_listed":1466523443,"bedrooms":1,"bathrooms":0,"description":"Quiet upstairs room with comfortable bed.","listing_url":"https://www.airbnb.com/rooms/9016651?checkin=2016-08-01&checkout=2016-08-31&af=3483444","listing_id":253289669,"address":"Wright St, Langley, BC V1M 3T4"},{"url":"http://localhost:8000/listings/297/","latitude":49.1468429,"longitude":-122.75472943961,"neighbourhood":null,"price":946,"date_listed":1466523445,"bedrooms":1,"bathrooms":0,"description":"Bedroom bathroom/laundry all locked","listing_url":"https://www.airbnb.com/rooms/11357371?checkin=2016-08-01&checkout=2016-08-31&af=3483444","listing_id":253289676,"address":"Fraser Hwy, Surrey, BC V4N 0E6"},{"url":"http://localhost:8000/listings/260/","latitude":49.155083733267,"longitude":-122.76928933962,"neighbourhood":null,"price":654,"date_listed":1466523447,"bedrooms":1,"bathrooms":0,"description":"Charming home to stay!","listing_url":"https://www.airbnb.com/rooms/10785731?checkin=2016-08-01&checkout=2016-08-31&af=3483444","listing_id":253289687,"address":"84 Ave, Surrey, BC V4N"},{"url":"http://localhost:8000/listings/224/","latitude":49.067117239624,"longitude":-122.81799176673,"neighbourhood":null,"price":1790,"date_listed":1466523456,"bedrooms":1,"bathrooms":0,"description":"   ","listing_url":"https://www.airbnb.com/rooms/3883525?checkin=2016-08-01&checkout=2016-08-31&af=3483444","listing_id":253289707,"address":"Winter Crescent, Surrey, BC V4P 0E3"},{"url":"http://localhost:8000/listings/253/","latitude":49.161775262522,"longitude":-122.75428033748,"neighbourhood":null,"price":1992,"date_listed":1466523460,"bedrooms":1,"bathrooms":0,"description":"","listing_url":"https://www.airbnb.com/rooms/10255377?checkin=2016-08-01&checkout=2016-08-31&af=3483444","listing_id":253289722,"address":"87 Ave, Surrey, BC V4N 5J4"},{"url":"http://localhost:8000/listings/122/","latitude":49.225218660376,"longitude":-122.99426936673,"neighbourhood":null,"price":966,"date_listed":1466523465,"bedrooms":1,"bathrooms":0,"description":"Upscale condo private room close to attractions","listing_url":"https://www.airbnb.com/rooms/13043594?checkin=2016-08-01&checkout=2016-08-31&af=3483444","listing_id":253289741,"address":"Bennett St, Burnaby, BC V5H 2G9"},{"url":"http://localhost:8000/listings/198/","latitude":49.256226239624,"longitude":-122.86977566673,"neighbourhood":null,"price":1337,"date_listed":1466524893,"bedrooms":1,"bathrooms":0,"description":"From the beautiful trip from JINDO","listing_url":"https://www.airbnb.com/rooms/10576268?checkin=2016-08-01&checkout=2016-08-31&af=3483444","listing_id":253290251,"address":"Foster Ave, Coquitlam, BC V3J 2L9"},{"url":"http://localhost:8000/listings/133/","latitude":49.289464,"longitude":-122.81249746039,"neighbourhood":null,"price":2104,"date_listed":1466524895,"bedrooms":1,"bathrooms":0,"description":"home ","listing_url":"https://www.airbnb.com/rooms/9945209?checkin=2016-08-01&checkout=2016-08-31&af=3483444","listing_id":253290260,"address":"Turret Crescent, Coquitlam, BC V3E 1R4"},{"url":"http://localhost:8000/listings/251/","latitude":49.293893233267,"longitude":-122.79815376038,"neighbourhood":null,"price":1352,"date_listed":1466524898,"bedrooms":1,"bathrooms":0,"description":"home","listing_url":"https://www.airbnb.com/rooms/10755326?checkin=2016-08-01&checkout=2016-08-31&af=3483444","listing_id":253290265,"address":"Elan Pl, Coquitlam, BC V3B 7E6"},{"url":"http://localhost:8000/listings/278/","latitude":49.257837162522,"longitude":-122.78538843748,"neighbourhood":null,"price":1529,"date_listed":1466524898,"bedrooms":1,"bathrooms":0,"description":"Guenstige Mietwohnung fuer den Urla","listing_url":"https://www.airbnb.com/rooms/943957?checkin=2016-08-01&checkout=2016-08-31&af=3483444","listing_id":253290266,"address":"Welcher Ave, Port Coquitlam, BC V3C 1X6"},{"url":"http://localhost:8000/listings/204/","latitude":49.267430639624,"longitude":-122.99277503327,"neighbourhood":null,"price":1923,"date_listed":1466524901,"bedrooms":1,"bathrooms":0,"description":"Upstairs Master Suite & City View","listing_url":"https://www.airbnb.com/rooms/945453?checkin=2016-08-01&checkout=2016-08-31&af=3483444","listing_id":253290277,"address":"Ridgelawn Dr, Burnaby, BC V5C 3Y1"},{"url":"http://localhost:8000/listings/201/","latitude":49.336487462522,"longitude":-123.16294346252,"neighbourhood":null,"price":4117,"date_listed":1466524928,"bedrooms":1,"bathrooms":0,"description":"Cozy Cottage Style Character Home","listing_url":"https://www.airbnb.com/rooms/8371860?checkin=2016-08-01&checkout=2016-08-31&af=3483444","listing_id":253290358,"address":"Sinclair St, West Vancouver, BC V7V 3W3"},{"url":"http://localhost:8000/listings/125/","latitude":49.456579062522,"longitude":-123.23293826252,"neighbourhood":null,"price":6820,"date_listed":1466524936,"bedrooms":1,"bathrooms":0,"description":"QK Lions Bay - Garden View Room","listing_url":"https://www.airbnb.com/rooms/9524580?checkin=2016-08-01&checkout=2016-08-31&af=3483444","listing_id":253290374,"address":"Highview Pl, Lions Bay, BC V0N"},{"url":"http://localhost:8000/listings/170/","latitude":49.339862233267,"longitude":-123.13547923962,"neighbourhood":null,"price":4460,"date_listed":1466524936,"bedrooms":2,"bathrooms":0,"description":"British properties garden suite","listing_url":"https://www.airbnb.com/rooms/9613555?checkin=2016-08-01&checkout=2016-08-31&af=3483444","listing_id":253290375,"address":"Taylor Way, West Vancouver, BC V7S 1N5"},{"url":"http://localhost:8000/listings/482/","latitude":48.757,"longitude":-122.491,"neighbourhood":null,"price":700,"date_listed":1466575979,"bedrooms":0,"bathrooms":1,"description":"0BR/1BA Apartment - 1315 W Holly St","listing_url":"https://www.padmapper.com/listings/16942080.-0-bedroom-1-bathroom-Apartment-at-1315-W-Holly-St-Bellingham-WA-98225","listing_id":253308395,"address":"1315 W Holly St, Bellingham, WA 98225"},{"url":"http://localhost:8000/listings/392/","latitude":49.2772,"longitude":-123.13,"neighbourhood":null,"price":2250,"date_listed":1466577788,"bedrooms":1,"bathrooms":1,"description":"1BR/1BA Condo - 1308 Hornby Street","listing_url":"https://www.padmapper.com/listings/16927437.-1-bedroom-1-bathroom-Condo-at-1308-Hornby-Street-Vancouver-BC-V6Z-0C5","listing_id":253308865,"address":"1308 Hornby Street, Vancouver, BC V6Z 0C5"},{"url":"http://localhost:8000/listings/572/","latitude":49.2805,"longitude":-123.117,"neighbourhood":null,"price":3475,"date_listed":1466590191,"bedrooms":2,"bathrooms":2,"description":"2BR/2BA Apartment - 788 Richards St","listing_url":"https://www.padmapper.com/listings/16943836.-2-bedroom-2-bathroom-Apartment-at-788-Richards-St-Vancouver-BC-V6B-0C8","listing_id":253310711,"address":"788 Richards St, Vancouver, BC V6B 0C8"},{"url":"http://localhost:8000/listings/614/","latitude":49.356,"longitude":-123.137,"neighbourhood":null,"price":5250,"date_listed":1466609337,"bedrooms":5,"bathrooms":4,"description":"5BR/4BA Apartment - 835 Andover Crescent","listing_url":"https://www.padmapper.com/listings/16953783.-5-bedroom-4-bathroom-Apartment-at-835-Andover-Crescent-West-Vancouver-BC-V7S-1Y5","listing_id":253325286,"address":"835 Andover Crescent, West Vancouver, BC V7S 1Y5"},{"url":"http://localhost:8000/listings/501/","latitude":48.7581,"longitude":-122.473,"neighbourhood":null,"price":1195,"date_listed":1466659968,"bedrooms":2,"bathrooms":1,"description":"2BR/1BA House - 2105 Ellis St","listing_url":"https://www.padmapper.com/listings/16773719.-2-bedroom-1-bathroom-House-at-2105-Ellis-St-Bellingham-WA-98225","listing_id":253334555,"address":"2105 Ellis St, Bellingham, WA 98225"},{"url":"http://localhost:8000/listings/385/","latitude":49.2757,"longitude":-123.132,"neighbourhood":null,"price":4680,"date_listed":1466663349,"bedrooms":2,"bathrooms":2,"description":"2BR/2BA Apartment - 1488 Hornby Street","listing_url":"https://www.padmapper.com/listings/16961405.-2-bedroom-2-bathroom-Apartment-at-1488-Hornby-Street-Vancouver-BC-V6Z-1X3","listing_id":253336426,"address":"1488 Hornby Street, Vancouver, BC V6Z 1X3"},{"url":"http://localhost:8000/listings/395/","latitude":49.0239,"longitude":-123.079,"neighbourhood":null,"price":3500,"date_listed":1466673146,"bedrooms":5,"bathrooms":4,"description":"5BR/3.5BA House - 5248 11A Ave.","listing_url":"https://www.padmapper.com/listings/16961831.-5-bedroom-3-5-bathroom-House-at-5248-11A-Ave-Tsawwassen-BC-BC-V4M-2A1","listing_id":253337130,"address":"5248 11A Ave., Tsawwassen BC, BC V4M 2A1"},{"url":"http://localhost:8000/listings/556/","latitude":48.7625,"longitude":-122.44,"neighbourhood":null,"price":1350,"date_listed":1466748052,"bedrooms":3,"bathrooms":2,"description":"3BR/2BA Apartment - 2423 Michigan St","listing_url":"https://www.padmapper.com/listings/16888782.-3-bedroom-2-bathroom-Apartment-at-2423-Michigan-St-Bellingham-WA-98229","listing_id":253354437,"address":"2423 Michigan St, Bellingham, WA 98229"},{"url":"http://localhost:8000/listings/257/","latitude":48.744784233267,"longitude":-122.46088623962,"neighbourhood":null,"price":1310,"date_listed":1466782032,"bedrooms":1,"bathrooms":0,"description":"A lil'room in a lil'house","listing_url":"https://www.airbnb.com/rooms/13675808?checkin=2016-08-01&checkout=2016-08-31&af=3483444","listing_id":253367463,"address":"Lakewood Ln, Bellingham, WA 98229"},{"url":"http://localhost:8000/listings/356/","latitude":49.180697766733,"longitude":-123.12583523962,"neighbourhood":null,"price":2200,"date_listed":1466820686,"bedrooms":4,"bathrooms":3,"description":"4BR/3BA House - Sorenson Crescent","listing_url":"https://www.padmapper.com/listings/16979571.-4-bedroom-3-bathroom-House-at-Sorenson-Crescent-Richmond-BC-V6X-2V6","listing_id":253375105,"address":"Sorenson Crescent, Richmond, BC V6X 2V6"},{"url":"http://localhost:8000/listings/33/","latitude":49.1349,"longitude":-123.121,"neighbourhood":null,"price":1040,"date_listed":1466858546,"bedrooms":1,"bathrooms":1,"description":"1BR/1BA Apartment - 10951 Mortfield Rd","listing_url":"https://www.padmapper.com/listings/16983851.-1-bedroom-1-bathroom-Apartment-at-10951-Mortfield-Rd-Richmond-BC-V7A-2W5","listing_id":253382879,"address":"10951 Mortfield Rd, Richmond, BC V7A 2W5"},{"url":"http://localhost:8000/listings/234/","latitude":49.244583737478,"longitude":-124.04828126252,"neighbourhood":null,"price":1071,"date_listed":1466865663,"bedrooms":1,"bathrooms":0,"description":"Bright, Spacious & Clean","listing_url":"https://www.airbnb.com/rooms/7692051?checkin=2016-08-01&checkout=2016-08-31&af=3483444","listing_id":253383522,"address":"Kestrel Crescent, Nanaimo, BC V9V 1V6"},{"url":"http://localhost:8000/listings/304/","latitude":48.7358,"longitude":-122.39,"neighbourhood":null,"price":1500,"date_listed":1466930523,"bedrooms":3,"bathrooms":3,"description":"3BR/2.5BA Apartment - 1862 Lake Louise Road","listing_url":"https://www.padmapper.com/listings/16989973.-3-bedroom-2-5-bathroom-Apartment-at-1862-Lake-Louise-Road-Bellingham-WA-98229","listing_id":253392875,"address":"1862 Lake Louise Road, Bellingham, WA 98229"},{"url":"http://localhost:8000/listings/378/","latitude":49.2757,"longitude":-123.132,"neighbourhood":null,"price":4580,"date_listed":1466984408,"bedrooms":3,"bathrooms":2,"description":"3BR/2BA Apartment - 1488 Hornby Street","listing_url":"https://www.padmapper.com/listings/16993526.-3-bedroom-2-bathroom-Apartment-at-1488-Hornby-Street-Vancouver-BC-V6Z-1X3","listing_id":253399560,"address":"1488 Hornby Street, Vancouver, BC V6Z 1X3"},{"url":"http://localhost:8000/listings/473/","latitude":49.0546,"longitude":-122.337,"neighbourhood":null,"price":625,"date_listed":1467057812,"bedrooms":0,"bathrooms":1,"description":"0BR/1BA Apartment - 32030 George Ferguson Way","listing_url":"https://www.padmapper.com/listings/16996638.-0-bedroom-1-bathroom-Apartment-at-32030-George-Ferguson-Way-Abbotsford-BC-V2T-2K6","listing_id":253407205,"address":"32030 George Ferguson Way, Abbotsford, BC V2T 2K6"},{"url":"http://localhost:8000/listings/542/","latitude":49.0546,"longitude":-122.337,"neighbourhood":null,"price":800,"date_listed":1467057812,"bedrooms":1,"bathrooms":1,"description":"1BR/1BA Apartment - 32030 George Ferguson Way","listing_url":"https://www.padmapper.com/listings/16996639.-1-bedroom-1-bathroom-Apartment-at-32030-George-Ferguson-Way-Abbotsford-BC-V2T-2K6","listing_id":253407206,"address":"32030 George Ferguson Way, Abbotsford, BC V2T 2K6"},{"url":"http://localhost:8000/listings/35/","latitude":49.1917,"longitude":-122.808,"neighbourhood":null,"price":875,"date_listed":1467057813,"bedrooms":1,"bathrooms":1,"description":"1BR/1BA Apartment - 14921 104 Ave","listing_url":"https://www.padmapper.com/listings/16996645.-1-bedroom-1-bathroom-Apartment-at-14921-104-Ave-Surrey-BC-V3R-1M8","listing_id":253407212,"address":"14921 104 Ave, Surrey, BC V3R 1M8"},{"url":"http://localhost:8000/listings/495/","latitude":49.0485,"longitude":-122.346,"neighbourhood":null,"price":750,"date_listed":1467057813,"bedrooms":1,"bathrooms":1,"description":"1BR/1BA Apartment - 2525 Hill Tout St","listing_url":"https://www.padmapper.com/listings/16996643.-1-bedroom-1-bathroom-Apartment-at-2525-Hill-Tout-St-Abbotsford-BC-V2T-2P8","listing_id":253407210,"address":"2525 Hill Tout St, Abbotsford, BC V2T 2P8"},{"url":"http://localhost:8000/listings/563/","latitude":49.0475,"longitude":-122.346,"neighbourhood":null,"price":750,"date_listed":1467057813,"bedrooms":1,"bathrooms":1,"description":"1BR/1BA Apartment - 2485 Hill Tout St","listing_url":"https://www.padmapper.com/listings/16996641.-1-bedroom-1-bathroom-Apartment-at-2485-Hill-Tout-St-Abbotsford-BC-V2T-4G5","listing_id":253407208,"address":"2485 Hill Tout St, Abbotsford, BC V2T 4G5"},{"url":"http://localhost:8000/listings/2/","latitude":49.1917,"longitude":-122.808,"neighbourhood":null,"price":1000,"date_listed":1467057814,"bedrooms":2,"bathrooms":1,"description":"2BR/1BA Apartment - 14921 104 Ave","listing_url":"https://www.padmapper.com/listings/16996646.-2-bedroom-1-bathroom-Apartment-at-14921-104-Ave-Surrey-BC-V3R-1M8","listing_id":253407213,"address":"14921 104 Ave, Surrey, BC V3R 1M8"},{"url":"http://localhost:8000/listings/554/","latitude":49.1917,"longitude":-122.808,"neighbourhood":null,"price":1300,"date_listed":1467057814,"bedrooms":3,"bathrooms":1,"description":"3BR/1BA Apartment - 14921 104 Ave","listing_url":"https://www.padmapper.com/listings/16996647.-3-bedroom-1-bathroom-Apartment-at-14921-104-Ave-Surrey-BC-V3R-1M8","listing_id":253407214,"address":"14921 104 Ave, Surrey, BC V3R 1M8"},{"url":"http://localhost:8000/listings/19/","latitude":49.1769,"longitude":-122.87,"neighbourhood":null,"price":975,"date_listed":1467057815,"bedrooms":2,"bathrooms":1,"description":"2BR/1BA Apartment - 9555 128 St","listing_url":"https://www.padmapper.com/listings/16996651.-2-bedroom-1-bathroom-Apartment-at-9555-128-St-Surrey-BC-V3V","listing_id":253407219,"address":"9555 128 St, Surrey, BC V3V"},{"url":"http://localhost:8000/listings/30/","latitude":49.1742,"longitude":-122.868,"neighbourhood":null,"price":825,"date_listed":1467057815,"bedrooms":1,"bathrooms":1,"description":"1BR/1BA Apartment - 9450 128 St","listing_url":"https://www.padmapper.com/listings/16996652.-1-bedroom-1-bathroom-Apartment-at-9450-128-St-Surrey-BC-V3V-6C4","listing_id":253407220,"address":"9450 128 St, Surrey, BC V3V 6C4"},{"url":"http://localhost:8000/listings/488/","latitude":49.203,"longitude":-122.844,"neighbourhood":null,"price":1200,"date_listed":1467057815,"bedrooms":3,"bathrooms":1,"description":"3BR/1BA Apartment - 11022 136 St","listing_url":"https://www.padmapper.com/listings/16996650.-3-bedroom-1-bathroom-Apartment-at-11022-136-St-Surrey-BC-V3R-2B1","listing_id":253407217,"address":"11022 136 St, Surrey, BC V3R 2B1"},{"url":"http://localhost:8000/listings/520/","latitude":49.203,"longitude":-122.844,"neighbourhood":null,"price":975,"date_listed":1467057815,"bedrooms":2,"bathrooms":1,"description":"2BR/1BA Apartment - 11022 136 St","listing_url":"https://www.padmapper.com/listings/16996649.-2-bedroom-1-bathroom-Apartment-at-11022-136-St-Surrey-BC-V3R-2B1","listing_id":253407216,"address":"11022 136 St, Surrey, BC V3R 2B1"},{"url":"http://localhost:8000/listings/574/","latitude":49.1969,"longitude":-122.812,"neighbourhood":null,"price":825,"date_listed":1467057815,"bedrooms":1,"bathrooms":1,"description":"1BR/1BA Apartment - 14955 107 Ave","listing_url":"https://www.padmapper.com/listings/16996653.-1-bedroom-1-bathroom-Apartment-at-14955-107-Ave-Surrey-BC-V3R","listing_id":253407221,"address":"14955 107 Ave, Surrey, BC V3R"},{"url":"http://localhost:8000/listings/559/","latitude":49.1969,"longitude":-122.812,"neighbourhood":null,"price":1135,"date_listed":1467057816,"bedrooms":3,"bathrooms":1,"description":"3BR/1BA Apartment - 14955 107 Ave","listing_url":"https://www.padmapper.com/listings/16996655.-3-bedroom-1-bathroom-Apartment-at-14955-107-Ave-Surrey-BC-V3R","listing_id":253407223,"address":"14955 107 Ave, Surrey, BC V3R"},{"url":"http://localhost:8000/listings/587/","latitude":49.1969,"longitude":-122.812,"neighbourhood":null,"price":1000,"date_listed":1467057816,"bedrooms":2,"bathrooms":1,"description":"2BR/1BA Apartment - 14955 107 Ave","listing_url":"https://www.padmapper.com/listings/16996654.-2-bedroom-1-bathroom-Apartment-at-14955-107-Ave-Surrey-BC-V3R","listing_id":253407222,"address":"14955 107 Ave, Surrey, BC V3R"},{"url":"http://localhost:8000/listings/441/","latitude":49.0578,"longitude":-122.338,"neighbourhood":null,"price":650,"date_listed":1467057927,"bedrooms":0,"bathrooms":1,"description":"0BR/1BA Apartment - 3065 Clearbrook Rd","listing_url":"https://www.padmapper.com/listings/16996897.-0-bedroom-1-bathroom-Apartment-at-3065-Clearbrook-Rd-Abbotsford-BC-V2T-2Z9","listing_id":253407466,"address":"3065 Clearbrook Rd, Abbotsford, BC V2T 2Z9"},{"url":"http://localhost:8000/listings/7/","latitude":49.0578,"longitude":-122.338,"neighbourhood":null,"price":900,"date_listed":1467057928,"bedrooms":2,"bathrooms":1,"description":"2BR/1BA Apartment - 3065 Clearbrook Rd","listing_url":"https://www.padmapper.com/listings/16996899.-2-bedroom-1-bathroom-Apartment-at-3065-Clearbrook-Rd-Abbotsford-BC-V2T-2Z9","listing_id":253407468,"address":"3065 Clearbrook Rd, Abbotsford, BC V2T 2Z9"},{"url":"http://localhost:8000/listings/533/","latitude":49.0578,"longitude":-122.338,"neighbourhood":null,"price":800,"date_listed":1467057928,"bedrooms":1,"bathrooms":1,"description":"1BR/1BA Apartment - 3065 Clearbrook Rd","listing_url":"https://www.padmapper.com/listings/16996898.-1-bedroom-1-bathroom-Apartment-at-3065-Clearbrook-Rd-Abbotsford-BC-V2T-2Z9","listing_id":253407467,"address":"3065 Clearbrook Rd, Abbotsford, BC V2T 2Z9"},{"url":"http://localhost:8000/listings/547/","latitude":49.0559,"longitude":-122.333,"neighbourhood":null,"price":800,"date_listed":1467057929,"bedrooms":1,"bathrooms":1,"description":"1BR/1BA Apartment - 2959 Tims St","listing_url":"https://www.padmapper.com/listings/16996902.-1-bedroom-1-bathroom-Apartment-at-2959-Tims-St-Abbotsford-BC-V2T-4G2","listing_id":253407471,"address":"2959 Tims St, Abbotsford, BC V2T 4G2"},{"url":"http://localhost:8000/listings/517/","latitude":49.1974,"longitude":-122.805,"neighbourhood":null,"price":1175,"date_listed":1467057935,"bedrooms":3,"bathrooms":1,"description":"3BR/1BA Apartment - 10736 150 St","listing_url":"https://www.padmapper.com/listings/16996922.-3-bedroom-1-bathroom-Apartment-at-10736-150-St-Surrey-BC-V3R-4C5","listing_id":253407491,"address":"10736 150 St, Surrey, BC V3R 4C5"},{"url":"http://localhost:8000/listings/564/","latitude":49.1974,"longitude":-122.805,"neighbourhood":null,"price":800,"date_listed":1467057935,"bedrooms":1,"bathrooms":1,"description":"1BR/1BA Apartment - 10736 150 St","listing_url":"https://www.padmapper.com/listings/16996920.-1-bedroom-1-bathroom-Apartment-at-10736-150-St-Surrey-BC-V3R-4C5","listing_id":253407489,"address":"10736 150 St, Surrey, BC V3R 4C5"},{"url":"http://localhost:8000/listings/523/","latitude":49.2901,"longitude":-123.145,"neighbourhood":null,"price":3300,"date_listed":1467057971,"bedrooms":2,"bathrooms":1,"description":"2BR/1BA Apartment - 2061 Beach Ave","listing_url":"https://www.padmapper.com/listings/16996970.-2-bedroom-1-bathroom-Apartment-at-2061-Beach-Ave-Vancouver-BC-V6G-1Z3","listing_id":253407539,"address":"2061 Beach Ave, Vancouver, BC V6G 1Z3"},{"url":"http://localhost:8000/listings/6/","latitude":49.2808,"longitude":-123.138,"neighbourhood":null,"price":2100,"date_listed":1467058012,"bedrooms":1,"bathrooms":1,"description":"1BR/1BA Apartment - 1380 Jervis St","listing_url":"https://www.padmapper.com/listings/16997008.-1-bedroom-1-bathroom-Apartment-at-1380-Jervis-St-Vancouver-BC-V6E-2E5","listing_id":253407577,"address":"1380 Jervis St, Vancouver, BC V6E 2E5"},{"url":"http://localhost:8000/listings/589/","latitude":49.3166,"longitude":-123.071,"neighbourhood":null,"price":5000,"date_listed":1467058017,"bedrooms":2,"bathrooms":2,"description":"2BR/2BA Apartment - 150 Keith Rd E","listing_url":"https://www.padmapper.com/listings/16997014.-2-bedroom-2-bathroom-Apartment-at-150-Keith-Rd-E-North-Vancouver-BC-V7L-1T8","listing_id":253407583,"address":"150 Keith Rd E, North Vancouver, BC V7L 1T8"},{"url":"http://localhost:8000/listings/47/","latitude":49.3191,"longitude":-123.067,"neighbourhood":null,"price":1700,"date_listed":1467058030,"bedrooms":2,"bathrooms":1,"description":"2BR/1BA Apartment - 260 12th St E","listing_url":"https://www.padmapper.com/listings/16997027.-2-bedroom-1-bathroom-Apartment-at-260-12th-St-E-North-Vancouver-BC-V7L-2J8","listing_id":253407596,"address":"260 12th St E, North Vancouver, BC V7L 2J8"},{"url":"http://localhost:8000/listings/11/","latitude":49.2575,"longitude":-123.113,"neighbourhood":null,"price":2700,"date_listed":1467058051,"bedrooms":3,"bathrooms":1,"description":"3BR/1BA Apartment - 366 W 15th Ave","listing_url":"https://www.padmapper.com/listings/16997064.-3-bedroom-1-bathroom-Apartment-at-366-W-15th-Ave-Vancouver-BC-V5Y-1Y2","listing_id":253407633,"address":"366 W 15th Ave, Vancouver, BC V5Y 1Y2"},{"url":"http://localhost:8000/listings/52/","latitude":49.2575,"longitude":-123.113,"neighbourhood":null,"price":2500,"date_listed":1467058051,"bedrooms":2,"bathrooms":1,"description":"2BR/1BA Apartment - 366 W 15th Ave","listing_url":"https://www.padmapper.com/listings/16997062.-2-bedroom-1-bathroom-Apartment-at-366-W-15th-Ave-Vancouver-BC-V5Y-1Y2","listing_id":253407631,"address":"366 W 15th Ave, Vancouver, BC V5Y 1Y2"},{"url":"http://localhost:8000/listings/396/","latitude":49.243835239624,"longitude":-123.09939776673,"neighbourhood":"Riley Park","price":4700,"date_listed":1467061152,"bedrooms":4,"bathrooms":1,"description":"4BR/1BA House - Sophia Street Vancouver BC, V5V 3W1 Sophia Street","listing_url":"https://www.padmapper.com/listings/16997725.-4-bedroom-1-bathroom-House-at-Sophia-Street-Vancouver-BC-V5V-3W1-Sophia-Street-Vancouver-BC-V5V-3W1","listing_id":253408379,"address":"Sophia Street Vancouver BC, V5V 3W1 Sophia Street, Vancouver, BC V5V 3W1"},{"url":"http://localhost:8000/listings/399/","latitude":49.26153053961,"longitude":-123.207,"neighbourhood":"West Point Grey","price":3800,"date_listed":1467082812,"bedrooms":3,"bathrooms":2,"description":"3BR/2BA House - West 13th Avenue","listing_url":"https://www.padmapper.com/listings/16998885.-3-bedroom-2-bathroom-House-at-West-13th-Avenue-Vancouver-BC-V6R-2V2","listing_id":253410096,"address":"West 13th Avenue, Vancouver, BC V6R 2V2"},{"url":"http://localhost:8000/listings/344/","latitude":49.2882,"longitude":-123.123,"neighbourhood":null,"price":3350,"date_listed":1467082888,"bedrooms":2,"bathrooms":2,"description":"2BR/2BA Condo - 1188 West Pender Street","listing_url":"https://www.padmapper.com/listings/16998949.-2-bedroom-2-bathroom-Condo-at-1188-West-Pender-Street-Vancouver-BC-V6E-2R9","listing_id":253410160,"address":"1188 West Pender Street, Vancouver, BC V6E 2R9"},{"url":"http://localhost:8000/listings/414/","latitude":49.230095562522,"longitude":-123.16030443748,"neighbourhood":"Kerrisdale","price":5000,"date_listed":1467082924,"bedrooms":5,"bathrooms":4,"description":"5BR/3.5BA House - Vine Street","listing_url":"https://www.padmapper.com/listings/16998991.-5-bedroom-3-5-bathroom-House-at-Vine-Street-Vancouver-BC-V6M-4A7","listing_id":253410202,"address":"Vine Street, Vancouver, BC V6M 4A7"},{"url":"http://localhost:8000/listings/400/","latitude":49.353902233267,"longitude":-123.24916476038,"neighbourhood":null,"price":5500,"date_listed":1467082939,"bedrooms":5,"bathrooms":3,"description":"5BR/3BA House - Woodburn Road","listing_url":"https://www.padmapper.com/listings/16999006.-5-bedroom-3-bathroom-House-at-Woodburn-Road-West-Vancouver-BC-V7S-3A7","listing_id":253410217,"address":"Woodburn Road, West Vancouver, BC V7S 3A7"},{"url":"http://localhost:8000/listings/390/","latitude":49.2763,"longitude":-123.102,"neighbourhood":null,"price":3780,"date_listed":1467082973,"bedrooms":3,"bathrooms":2,"description":"3BR/2BA Townhouse - 125 Milross Avenue","listing_url":"https://www.padmapper.com/listings/16999044.-3-bedroom-2-bathroom-Townhouse-at-125-Milross-Avenue-Vancouver-BC-V6A-0A1","listing_id":253410255,"address":"125 Milross Avenue, Vancouver, BC V6A 0A1"},{"url":"http://localhost:8000/listings/353/","latitude":49.2671,"longitude":-123.185,"neighbourhood":null,"price":2200,"date_listed":1467142377,"bedrooms":2,"bathrooms":1,"description":"2BR/1BA House - 3651 West 6th Avenue","listing_url":"https://www.padmapper.com/listings/16528709.-2-bedroom-1-bathroom-House-at-3651-West-6th-Avenue-Vancouver-BC-V6R-1T6","listing_id":253424292,"address":"3651 West 6th Avenue, Vancouver, BC V6R 1T6"},{"url":"http://localhost:8000/listings/166/","latitude":49.2829108,"longitude":-123.09090553961,"neighbourhood":"Strathcona","price":8706,"date_listed":1467209848,"bedrooms":5,"bathrooms":0,"description":"STANLEY PARK TOUR CO - World's No 1 Park!!","listing_url":"https://www.airbnb.com/rooms/12040840?checkin=2016-08-01&checkout=2016-08-31&af=3483444","listing_id":253439068,"address":"Powell St, Vancouver, BC V6A 1H4"},{"url":"http://localhost:8000/listings/567/","latitude":48.7464,"longitude":-122.45,"neighbourhood":null,"price":1895,"date_listed":1467265414,"bedrooms":3,"bathrooms":2,"description":"3BR/2BA House - 1910 Ponderosa Dr","listing_url":"https://www.padmapper.com/listings/17016499.-3-bedroom-2-bathroom-House-at-1910-Ponderosa-Dr-Bellingham-WA-98229","listing_id":253450656,"address":"1910 Ponderosa Dr, Bellingham, WA 98229"},{"url":"http://localhost:8000/listings/3/","latitude":48.7468,"longitude":-122.481,"neighbourhood":null,"price":950,"date_listed":1467283813,"bedrooms":1,"bathrooms":1,"description":"1BR/1BA Apartment - 200 E Maple St","listing_url":"https://www.padmapper.com/listings/15598818.-1-bedroom-1-bathroom-Apartment-at-200-E-Maple-St-Bellingham-WA-98225","listing_id":253453790,"address":"200 E Maple St, Bellingham, WA 98225"},