[{"extURL": "https://www.padmapper.com/listings/16715951.-1-bedroom-1-bathroom-apartment-at-910-st-andrews-st-new-westminster-bc-v3m-1w1", "listAddr": "910 St Andrews St, New Westminster, BC V3M 1W1", "price": 980, "longitude": "-122.924", "latitude": "49.2076", "numBeds": 1}, {"extURL": "https://www.padmapper.com/listings/15942955.-1-bedroom-1-bathroom-apartment-at-4769-hazel-st-burnaby-bc-v5h-4t3", "listAddr": "4769 Hazel St, Burnaby, BC V5H 4T3", "price": 1380, "longitude": "-122.997", "latitude": "49.2292", "numBeds": 1}, {"extURL": "https://www.padmapper.com/listings/16609993.-2-bedroom-1-5-bathroom-apartment-at-4288-grange-st-burnaby-bc-v5h-1p2", "listAddr": "4288 Grange St, Burnaby, BC V5H 1P2", "price": 1610, "longitude": "-123.009", "latitude": "49.2327", "numBeds": 1}, {"extURL": "https://www.padmapper.com/listings/16610700.-1-bedroom-1-bathroom-apartment-at-6355-kingsway-burnaby-bc-v5e-1c9", "listAddr": "6355 Kingsway, Burnaby, BC V5E 1C9", "price": 1785, "longitude": "-122.971", "latitude": "49.2201", "numBeds": 1}, {"extURL": "https://www.padmapper.com/listings/16610703.-1-bedroom-1-bathroom-apartment-at-8351-bennett-rd-richmond-bc-v6y-1n4", "listAddr": "8351 Bennett Rd, Richmond, BC V6Y 1N4", "price": 1820, "longitude": "-123.132", "latitude": "49.1612", "numBeds": 1}, {"extURL": "https://www.padmapper.com/listings/16610704.-2-bedroom-1-bathroom-apartment-at-8351-bennett-rd-richmond-bc-v6y-1n4", "listAddr": "8351 Bennett Rd, Richmond, BC V6Y 1N4", "price": 2300, "longitude": "-123.132", "latitude": "49.1612", "numBeds": 1}, {"extURL": "https://www.padmapper.com/listings/16610747.-1-bedroom-1-bathroom-apartment-at-321-10th-st-new-westminster-bc-v3m-3y2", "listAddr": "321 10th St, New Westminster, BC V3M 3Y2", "price": 1100, "longitude": "-122.922", "latitude": "49.2061", "numBeds": 1}, {"extURL": "https://www.padmapper.com/listings/16611563.-1-bedroom-1-bathroom-apartment-at-12051-bath-rd-richmond-bc-v6v-2b5", "listAddr": "12051 Bath Rd, Richmond, BC V6V 2B5", "price": 1050, "longitude": "-123.091", "latitude": "49.1895", "numBeds": 1}, {"extURL": "https://www.padmapper.com/listings/16611578.-2-bedroom-1-5-bathroom-apartment-at-9350-122-st-surrey-bc-v3v-4l6", "listAddr": "9350 122 St, Surrey, BC V3V 4L6", "price": 1395, "longitude": "-122.884", "latitude": "49.1729", "numBeds": 1}, {"extURL": "https://www.padmapper.com/listings/16611579.-3-bedroom-1-5-bathroom-apartment-at-12180-82-ave-surrey-bc-v3w-3e3", "listAddr": "12180 82 Ave, Surrey, BC V3W 3E3", "price": 1420, "longitude": "-122.885", "latitude": "49.152", "numBeds": 1}, {"extURL": "https://www.padmapper.com/listings/16067226.-1-bedroom-1-bathroom-apartment-at-820-6th-ave-new-westminster-bc-v3m-3s2", "listAddr": "820 6th Ave, New Westminster, BC V3M 3S2", "price": 1370, "longitude": "-122.925", "latitude": "49.2106", "numBeds": 1}, {"extURL": "https://www.padmapper.com/listings/16628771.-2-bedroom-1-bathroom-house-at-341-hospital-street-new-westminster-bc-v3l-3l5", "listAddr": "341 Hospital Street, New Westminster, BC V3L 3L5", "price": 1950, "longitude": "-122.896", "latitude": "49.2267", "numBeds": 1}, {"extURL": "https://www.padmapper.com/listings/16630106.-5-bedroom-4-bathroom-house-at-imperial-street-burnaby-bc-v5e-1p3", "listAddr": "Imperial Street, Burnaby, BC V5E 1P3", "price": 3500, "longitude": "-122.949", "latitude": "49.2285", "numBeds": 1}, {"extURL": "https://www.padmapper.com/listings/16684948.-2-bedroom-2-bathroom-condo-at-6068-no-3-road-richmond-bc-v6y-4m8", "listAddr": "6068 no. 3 road, Richmond, BC V6Y 4M8", "price": 1990, "longitude": "-123.136", "latitude": "49.1695", "numBeds": 1}, {"extURL": "https://www.padmapper.com/listings/16886295.-6-bedroom-4-bathroom-house-at-cunningham-drive-richmond-bc-v6x-3n5", "listAddr": "Cunningham Drive, Richmond, BC V6X 3N5", "price": 4800, "longitude": "-123.121", "latitude": "49.1853", "numBeds": 1}, {"extURL": "https://www.padmapper.com/listings/16878001.-3-bedroom-1-bathroom-apartment-at-8350-11th-ave-burnaby-bc-v3n-2p4", "listAddr": "8350 11th Ave, Burnaby, BC V3N 2P4", "price": 1300, "longitude": "-122.917", "latitude": "49.2259", "numBeds": 1}, {"extURL": "https://www.airbnb.com/rooms/11967101?checkin=2016-08-01&checkout=2016-08-31&af=3483444", "listAddr": "Lansdowne Rd, Richmond, BC V6X 3X7", "price": 6239, "longitude": "-123.12807034990698", "latitude": "49.1742673142114", "numBeds": 1}, {"extURL": "https://www.airbnb.com/rooms/3352591?checkin=2016-08-01&checkout=2016-08-31&af=3483444", "listAddr": "Vanness Ave, Vancouver, BC V5R 6G1", "price": 2615, "longitude": "-123.02759753293049", "latitude": "49.23614564784019", "numBeds": 1}, {"extURL": "https://www.airbnb.com/rooms/13123943?checkin=2016-08-01&checkout=2016-08-31&af=3483444", "listAddr": "Moffatt Rd, Richmond, BC V6Y 3G9", "price": 2833, "longitude": "-123.1447031152062", "latitude": "49.161055819928", "numBeds": 1}, {"extURL": "https://www.airbnb.com/rooms/8364907?checkin=2016-08-01&checkout=2016-08-31&af=3483444", "listAddr": "Gollner Ave, Richmond, BC V6Y 0H5", "price": 2218, "longitude": "-123.14136485250779", "latitude": "49.16901174709867", "numBeds": 1}, {"extURL": "https://www.airbnb.com/rooms/13394169?checkin=2016-08-01&checkout=2016-08-31&af=3483444", "listAddr": "Imperial St, Burnaby, BC V5E 1P7", "price": 4237, "longitude": "-122.94967972284621", "latitude": "49.22758235305708", "numBeds": 1}, {"extURL": "https://www.airbnb.com/rooms/11276835?checkin=2016-08-01&checkout=2016-08-31&af=3483444", "listAddr": "Minoru Blvd, Richmond, BC V6X 3J3", "price": 4888, "longitude": "-123.13944334145643", "latitude": "49.17088655959963", "numBeds": 1}, {"extURL": "https://www.airbnb.com/rooms/7036991?checkin=2016-08-01&checkout=2016-08-31&af=3483444", "listAddr": "Westminster Hwy, Richmond, BC V6X 1A1", "price": 5626, "longitude": "-123.14534408487106", "latitude": "49.170619912329705", "numBeds": 1}, {"extURL": "https://www.airbnb.com/rooms/11653998?checkin=2016-08-01&checkout=2016-08-31&af=3483444", "listAddr": "10th St, New Westminster, BC V3M 3Z4", "price": 857, "longitude": "-122.92627689233925", "latitude": "49.20924540589761", "numBeds": 1}, {"extURL": "https://www.airbnb.com/rooms/12234252?checkin=2016-08-01&checkout=2016-08-31&af=3483444", "listAddr": "Victory St, Burnaby, BC V5J 1S4", "price": 1932, "longitude": "-122.99447152211624", "latitude": "49.21838290497133", "numBeds": 1}, {"extURL": "https://www.airbnb.com/rooms/13043594?checkin=2016-08-01&checkout=2016-08-31&af=3483444", "listAddr": "Bennett St, Burnaby, BC V5H 2G9", "price": 1032, "longitude": "-122.99396702179514", "latitude": "49.2252826732294", "numBeds": 1}, {"extURL": "https://www.padmapper.com/listings/16610769.-2-bedroom-1-bathroom-apartment-at-7111-linden-ave-burnaby-bc-v5e-3g7", "listAddr": "7111 Linden Ave, Burnaby, BC V5E 3G7", "price": 1070, "longitude": "-122.952", "latitude": "49.2201", "numBeds": 1}, {"extURL": "https://www.padmapper.com/listings/16979571.-4-bedroom-3-bathroom-house-at-sorenson-crescent-richmond-bc-v6x-2v6", "listAddr": "Sorenson Crescent, Richmond, BC V6X 2V6", "price": 2200, "longitude": "-123.126", "latitude": "49.1803", "numBeds": 1}, {"extURL": "https://www.airbnb.com/rooms/13360361?checkin=2016-08-01&checkout=2016-08-31&af=3483444", "listAddr": "Imperial St, Burnaby, BC V5J 1C4", "price": 2177, "longitude": "-122.99499000194544", "latitude": "49.22194404607818", "numBeds": 1}, {"extURL": "https://www.padmapper.com/listings/16996975.-1-bedroom-1-bathroom-apartment-at-6111-tisdall-st-vancouver-bc-v5z-3m9", "listAddr": "6111 Tisdall St, Vancouver, BC V5Z 3M9", "price": 1400, "longitude": "-123.122", "latitude": "49.2299", "numBeds": 1}, {"extURL": "https://www.padmapper.com/listings/16997009.-1-bedroom-1-bathroom-apartment-at-8740-cartier-st-vancouver-bc-v6p-4v2", "listAddr": "8740 Cartier St, Vancouver, BC V6P 4V2", "price": 1300, "longitude": "-123.137", "latitude": "49.2063", "numBeds": 1}, {"extURL": "https://www.padmapper.com/listings/16997725.-4-bedroom-1-bathroom-house-at-sophia-street-vancouver-bc-v5v-3w1-sophia-street-vancouver-bc-v5v-3w1", "listAddr": "Sophia Street Vancouver BC, V5V 3W1 Sophia Street, Vancouver, BC V5V 3W1", "price": 4700, "longitude": "-123.099", "latitude": "49.244", "numBeds": 1}, {"extURL": "https://www.padmapper.com/listings/16611530.-2-bedroom-1-bathroom-apartment-at-211-11th-st-new-westminster-bc-v3m-6b3", "listAddr": "211 11th St, New Westminster, BC V3M 6B3", "price": 1325, "longitude": "-122.922", "latitude": "49.2029", "numBeds": 1}, {"extURL": "https://www.padmapper.com/listings/16610690.-0-bedroom-1-bathroom-apartment-at-525-9th-st-new-westminster-bc-v3m-3w6", "listAddr": "525 9th St, New Westminster, BC V3M 3W6", "price": 525, "longitude": "-122.925", "latitude": "49.2099", "numBeds": 1}, {"extURL": "https://www.padmapper.com/listings/16610746.-0-bedroom-1-bathroom-apartment-at-236-8th-st-new-westminster-bc-v3m-3p9", "listAddr": "236 8th St, New Westminster, BC V3M 3P9", "price": 775, "longitude": "-122.918", "latitude": "49.2063", "numBeds": 1}, {"extURL": "https://www.padmapper.com/listings/16328836.-2-bedroom-1-bathroom-apartment-at-8200-park-rd-richmond-bc-v6y", "listAddr": "8200 Park Rd, Richmond, BC V6Y", "price": 1250, "longitude": "-123.133", "latitude": "49.1645", "numBeds": 1}, {"extURL": "https://www.airbnb.com/rooms/13192992?checkin=2016-08-01&checkout=2016-08-31&af=3483444", "listAddr": "Lucas Rd, Richmond, BC V6Y 1G1", "price": 1820, "longitude": "-123.13845165617188", "latitude": "49.15210932908954", "numBeds": 1}, {"extURL": "https://www.airbnb.com/rooms/10450947?checkin=2016-08-01&checkout=2016-08-31&af=3483444", "listAddr": "Alderbridge Way, Richmond, BC V6X 0A5", "price": 7272, "longitude": "-123.14399960272537", "latitude": "49.171509200477594", "numBeds": 1}, {"extURL": "https://www.airbnb.com/rooms/6796870?checkin=2016-08-01&checkout=2016-08-31&af=3483444", "listAddr": "McKay Ave, Burnaby, BC V5H 4M4", "price": 4718, "longitude": "-123.00188552430767", "latitude": "49.23040887848221", "numBeds": 1}, {"extURL": "https://www.airbnb.com/rooms/7913652?checkin=2016-08-01&checkout=2016-08-31&af=3483444", "listAddr": "Odlin Rd, Richmond, BC V6X 1E3", "price": 4143, "longitude": "-123.11069803540828", "latitude": "49.181916756676856", "numBeds": 1}, {"extURL": "https://www.airbnb.com/rooms/4868950?checkin=2016-08-01&checkout=2016-08-31&af=3483444", "listAddr": "Alderbridge Way, Richmond, BC V6X 0A7", "price": 4932, "longitude": "-123.14427073497149", "latitude": "49.17152448591587", "numBeds": 1}, {"extURL": "https://www.airbnb.com/rooms/13300349?checkin=2016-08-01&checkout=2016-08-31&af=3483444", "listAddr": "E 57th Ave, Vancouver, BC V5X 1S9", "price": 3657, "longitude": "-123.0953613224631", "latitude": "49.21771456227445", "numBeds": 1}, {"extURL": "https://www.airbnb.com/rooms/7006326?checkin=2016-08-01&checkout=2016-08-31&af=3483444", "listAddr": "No. 3 Road, Richmond, BC V6X", "price": 4645, "longitude": "-123.13649177555722", "latitude": "49.17055947548125", "numBeds": 1}, {"extURL": "https://www.airbnb.com/rooms/10575778?checkin=2016-08-01&checkout=2016-08-31&af=3483444", "listAddr": "No. 3 Road, Richmond, BC V6X 2C9", "price": 4514, "longitude": "-123.13785558373148", "latitude": "49.173193783685676", "numBeds": 1}, {"extURL": "https://www.airbnb.com/rooms/1975089?checkin=2016-08-01&checkout=2016-08-31&af=3483444", "listAddr": "Westminster Hwy, Richmond, BC V6X 1A1", "price": 4645, "longitude": "-123.14346920904343", "latitude": "49.16976167101789", "numBeds": 1}, {"extURL": "https://www.airbnb.com/rooms/10452007?checkin=2016-08-01&checkout=2016-08-31&af=3483444", "listAddr": "Elmbridge Way, Richmond, BC V6X 0A6", "price": 6328, "longitude": "-123.14421177104687", "latitude": "49.17177531910186", "numBeds": 1}, {"extURL": "https://www.airbnb.com/rooms/12390533?checkin=2016-08-01&checkout=2016-08-31&af=3483444", "listAddr": "Brownell Rd, Richmond, BC V6X 1G3", "price": 309, "longitude": "-123.13176623949192", "latitude": "49.1808233966307", "numBeds": 1}, {"extURL": "https://www.airbnb.com/rooms/13119383?checkin=2016-08-01&checkout=2016-08-31&af=3483444", "listAddr": "Ackroyd Rd, Richmond, BC V6X 3K1", "price": 987, "longitude": "-123.13508108407528", "latitude": "49.17263091138288", "numBeds": 1}, {"extURL": "https://www.airbnb.com/rooms/9281169?checkin=2016-08-01&checkout=2016-08-31&af=3483444", "listAddr": "Beresford St, Burnaby, BC V5J 1K2", "price": 784, "longitude": "-122.97473636635887", "latitude": "49.216643238536186", "numBeds": 1}, {"extURL": "https://www.airbnb.com/rooms/5750353?checkin=2016-08-01&checkout=2016-08-31&af=3483444", "listAddr": "Elgin Pl, Burnaby, BC V5H 3S1", "price": 778, "longitude": "-122.98327177948559", "latitude": "49.230766245537346", "numBeds": 1}, {"extURL": "https://www.airbnb.com/rooms/13724731?checkin=2016-08-01&checkout=2016-08-31&af=3483444", "listAddr": "Hazelbridge Way, Richmond, BC V6X 3R8", "price": 330, "longitude": "-123.13294479621048", "latitude": "49.181524072141976", "numBeds": 1}, {"extURL": "https://www.airbnb.com/rooms/13715566?checkin=2016-08-01&checkout=2016-08-31&af=3483444", "listAddr": "Dickenson St, New Westminster, BC V3L 1E8", "price": 964, "longitude": "-122.9061163980161", "latitude": "49.20600972928886", "numBeds": 1}, {"extURL": "https://www.airbnb.com/rooms/12971727?checkin=2016-08-01&checkout=2016-08-31&af=3483444", "listAddr": "Granville Ave, Richmond, BC V6Y 1P3", "price": 784, "longitude": "-123.13279680127705", "latitude": "49.16272702223035", "numBeds": 1}, {"extURL": "https://www.airbnb.com/rooms/114118?checkin=2016-08-01&checkout=2016-08-31&af=3483444", "listAddr": "Cunningham Pl, Richmond, BC V6X 3N7", "price": 788, "longitude": "-123.12018816540515", "latitude": "49.18621753894285", "numBeds": 1}, {"extURL": "https://www.airbnb.com/rooms/389563?checkin=2016-08-01&checkout=2016-08-31&af=3483444", "listAddr": "Kilby Dr, Richmond, BC V6X 3N1", "price": 850, "longitude": "-123.11566705557028", "latitude": "49.185701653036766", "numBeds": 1}, {"extURL": "https://www.airbnb.com/rooms/4803970?checkin=2016-08-01&checkout=2016-08-31&af=3483444", "listAddr": "No. 3 Road, Richmond, BC V6Y 2C6", "price": 762, "longitude": "-123.13646104936839", "latitude": "49.1612709921866", "numBeds": 1}, {"extURL": "https://www.airbnb.com/rooms/13317416?checkin=2016-08-01&checkout=2016-08-31&af=3483444", "listAddr": "W 46th Ave, Vancouver, BC V5Y 2X1", "price": 857, "longitude": "-123.11012723148923", "latitude": "49.229008574664334", "numBeds": 1}, {"extURL": "https://www.airbnb.com/rooms/8429107?checkin=2016-08-01&checkout=2016-08-31&af=3483444", "listAddr": "Clive Ave, Vancouver, BC V5R 4V5", "price": 3156, "longitude": "-123.03299064084702", "latitude": "49.23806748752278", "numBeds": 1}, {"extURL": "https://www.airbnb.com/rooms/8705481?checkin=2016-08-01&checkout=2016-08-31&af=3483444", "listAddr": "Capilano Way, New Westminster, BC V3L 5G3", "price": 2513, "longitude": "-122.88578579212921", "latitude": "49.225957294000224", "numBeds": 1}, {"extURL": "https://www.airbnb.com/rooms/13520673?checkin=2016-08-01&checkout=2016-08-31&af=3483444", "listAddr": "Canada Line Bikeway, Vancouver, BC V6P 3J5", "price": 5458, "longitude": "-123.11670593523284", "latitude": "49.21071467285838", "numBeds": 1}, {"extURL": "https://www.airbnb.com/rooms/1538883?checkin=2016-08-01&checkout=2016-08-31&af=3483444", "listAddr": "SW Marine Dr, Vancouver, BC V5X 2R1", "price": 2289, "longitude": "-123.10853243595017", "latitude": "49.21156954684041", "numBeds": 1}, {"extURL": "https://www.airbnb.com/rooms/10544059?checkin=2016-08-01&checkout=2016-08-31&af=3483444", "listAddr": "E 52nd Ave, Vancouver, BC V5X 1H1", "price": 2553, "longitude": "-123.08985430305673", "latitude": "49.222854753008036", "numBeds": 1}, {"extURL": "https://www.airbnb.com/rooms/13605060?checkin=2016-08-01&checkout=2016-08-31&af=3483444", "listAddr": "Hedley Ave, Burnaby, BC V5E 2R3", "price": 2351, "longitude": "-122.96611522324208", "latitude": "49.21247140743947", "numBeds": 1}, {"extURL": "https://www.airbnb.com/rooms/7437687?checkin=2016-08-01&checkout=2016-08-31&af=3483444", "listAddr": "Hall Ave, Richmond, BC V6X 3S5", "price": 2071, "longitude": "-123.11205274004683", "latitude": "49.182316213919385", "numBeds": 1}, {"extURL": "https://www.airbnb.com/rooms/8177354?checkin=2016-08-01&checkout=2016-08-31&af=3483444", "listAddr": "Mang Rd, Richmond, BC V7C 2Y1", "price": 2478, "longitude": "-123.14931719881156", "latitude": "49.16023760011596", "numBeds": 1}, {"extURL": "https://www.airbnb.com/rooms/1936916?checkin=2016-08-01&checkout=2016-08-31&af=3483444", "listAddr": "W 47th Ave, Vancouver, BC V5Y 2X7", "price": 2100, "longitude": "-123.10701981247243", "latitude": "49.22791430925239", "numBeds": 1}, {"extURL": "https://www.airbnb.com/rooms/8179973?checkin=2016-08-01&checkout=2016-08-31&af=3483444", "listAddr": "Mang Rd, Richmond, BC V7C 2Y2", "price": 2478, "longitude": "-123.14865114990265", "latitude": "49.15962277408558", "numBeds": 1}, {"extURL": "https://www.airbnb.com/rooms/13085583?checkin=2016-08-01&checkout=2016-08-31&af=3483444", "listAddr": "Cambie St, Vancouver, BC V5Z 3B3", "price": 2141, "longitude": "-123.11637222569016", "latitude": "49.22924487067031", "numBeds": 1}, {"extURL": "https://www.airbnb.com/rooms/13126026?checkin=2016-08-01&checkout=2016-08-31&af=3483444", "listAddr": "Gordon Ave, Burnaby, BC V5E 3M1", "price": 3215, "longitude": "-122.95243805735532", "latitude": "49.2309224308145", "numBeds": 1}, {"extURL": "https://www.airbnb.com/rooms/12174213?checkin=2016-08-01&checkout=2016-08-31&af=3483444", "listAddr": "Victory St, Burnaby, BC V5J 1S5", "price": 3789, "longitude": "-122.99488528178709", "latitude": "49.21862250798657", "numBeds": 1}, {"extURL": "https://www.airbnb.com/rooms/13417885?checkin=2016-08-01&checkout=2016-08-31&af=3483444", "listAddr": "E 29th Ave, Vancouver, BC V5V 2R9", "price": 3494, "longitude": "-123.09321564672081", "latitude": "49.24420614319476", "numBeds": 1}, {"extURL": "https://www.airbnb.com/rooms/48146?checkin=2016-08-01&checkout=2016-08-31&af=3483444", "listAddr": "Foster Ave, Vancouver, BC V5R 0A1", "price": 3655, "longitude": "-123.02644067829515", "latitude": "49.23457416192011", "numBeds": 1}, {"extURL": "https://www.airbnb.com/rooms/12345663?checkin=2016-08-01&checkout=2016-08-31&af=3483444", "listAddr": "Jubilee Ave, Burnaby, BC V5J 4B6", "price": 3570, "longitude": "-122.99533344748993", "latitude": "49.21760645719854", "numBeds": 1}, {"extURL": "https://www.airbnb.com/rooms/4907795?checkin=2016-08-01&checkout=2016-08-31&af=3483444", "listAddr": "Beresford St, Burnaby, BC V5H 3C9", "price": 3602, "longitude": "-123.00116508303925", "latitude": "49.224387772412946", "numBeds": 1}, {"extURL": "https://www.airbnb.com/rooms/11698774?checkin=2016-08-01&checkout=2016-08-31&af=3483444", "listAddr": "Hedley Ave, Burnaby, BC V5E 1A2", "price": 1409, "longitude": "-122.96837574168605", "latitude": "49.21082205026205", "numBeds": 1}, {"extURL": "https://www.airbnb.com/rooms/5254305?checkin=2016-08-01&checkout=2016-08-31&af=3483444", "listAddr": "Marlborough Ave, Burnaby, BC V5J 4G6", "price": 1808, "longitude": "-122.99147554750935", "latitude": "49.21889335016124", "numBeds": 1}, {"extURL": "https://www.airbnb.com/rooms/13006966?checkin=2016-08-01&checkout=2016-08-31&af=3483444", "listAddr": "87a Ave, Delta, BC V4C 3A6", "price": 1090, "longitude": "-122.91122044401958", "latitude": "49.16242316047715", "numBeds": 1}, {"extURL": "https://www.airbnb.com/rooms/13755155?checkin=2016-08-01&checkout=2016-08-31&af=3483444", "listAddr": "Hedley Ave, Burnaby, BC V5E 2R3", "price": 1897, "longitude": "-122.96745894875164", "latitude": "49.21355628642519", "numBeds": 1}, {"extURL": "https://www.airbnb.com/rooms/12023084?checkin=2016-08-01&checkout=2016-08-31&af=3483444", "listAddr": "Walker Ave, Burnaby, BC V5E 3B4", "price": 1148, "longitude": "-122.9629443727398", "latitude": "49.22918630414558", "numBeds": 1}, {"extURL": "https://www.airbnb.com/rooms/7968727?checkin=2016-08-01&checkout=2016-08-31&af=3483444", "listAddr": "Victory St, Burnaby, BC V5J 1S8", "price": 2035, "longitude": "-122.99165603343553", "latitude": "49.218741012861045", "numBeds": 1}, {"extURL": "https://www.airbnb.com/rooms/12518072?checkin=2016-08-01&checkout=2016-08-31&af=3483444", "listAddr": "Cumberland St, Burnaby, BC V3N 2M3", "price": 1129, "longitude": "-122.9139720911538", "latitude": "49.22894528744747", "numBeds": 1}, {"extURL": "https://www.padmapper.com/listings/16609992.-1-bedroom-1-bathroom-apartment-at-4288-grange-st-burnaby-bc-v5h-1p2", "listAddr": "4288 Grange St, Burnaby, BC V5H 1P2", "price": 1320, "longitude": "-123.009", "latitude": "49.2327", "numBeds": 1}, {"extURL": "https://www.padmapper.com/listings/16499263.-2-bedroom-2-bathroom-apartment-at-4769-hazel-st-burnaby-bc-v5h-4t3", "listAddr": "4769 Hazel St, Burnaby, BC V5H 4T3", "price": 1775, "longitude": "-122.997", "latitude": "49.2292", "numBeds": 1}, {"extURL": "https://www.padmapper.com/listings/17048455.-1-bedroom-1-bathroom-apartment-at-1116-hamilton-st-new-westminster-bc-v3m-2m9", "listAddr": "1116 Hamilton St, New Westminster, BC V3M 2M9", "price": 975, "longitude": "-122.932", "latitude": "49.21", "numBeds": 1}, {"extURL": "https://www.padmapper.com/listings/17048462.-1-bedroom-1-bathroom-apartment-at-1021-howay-st-new-westminster-bc-v3m-1z9", "listAddr": "1021 Howay St, New Westminster, BC V3M 1Z9", "price": 975, "longitude": "-122.927", "latitude": "49.2076", "numBeds": 1}, {"extURL": "https://www.padmapper.com/listings/17048464.-1-bedroom-1-bathroom-apartment-at-529-10th-st-new-westminster-bc-v3m-3z4", "listAddr": "529 10th St, New Westminster, BC V3M 3Z4", "price": 980, "longitude": "-122.926", "latitude": "49.2096", "numBeds": 1}, {"extURL": "https://www.padmapper.com/listings/17048473.-1-bedroom-1-bathroom-apartment-at-315-agnes-st-new-westminster-bc-v3l-1e7", "listAddr": "315 Agnes St, New Westminster, BC V3L 1E7", "price": 965, "longitude": "-122.906", "latitude": "49.207", "numBeds": 1}, {"extURL": "https://www.airbnb.com/rooms/13802645?checkin=2016-08-01&checkout=2016-08-31&af=3483444", "listAddr": "88a Ave, Delta, BC V4C 3E2", "price": 5268, "longitude": "-122.91118830089823", "latitude": "49.16386980963793", "numBeds": 1}, {"extURL": "https://www.airbnb.com/rooms/53426?checkin=2016-08-01&checkout=2016-08-31&af=3483444", "listAddr": "Cambie Rd, Richmond, BC V6X 1K4", "price": 788, "longitude": "-123.12093204640897", "latitude": "49.18459683206358", "numBeds": 1}, {"extURL": "https://www.padmapper.com/listings/17054657.-5-bedroom-3-bathroom-apartment-at-5756-angus-dr-vancouver-bc-v6m-3n8", "listAddr": "5756 Angus Dr, Vancouver, BC V6M 3N8", "price": 5500, "longitude": "-123.147", "latitude": "49.234", "numBeds": 1}, {"extURL": "https://www.airbnb.com/rooms/6868788?checkin=2016-08-01&checkout=2016-08-31&af=3483444", "listAddr": "Blundell Rd, Richmond, BC V6Y 1K6", "price": 2188, "longitude": "-123.11846644758856", "latitude": "49.15515774364374", "numBeds": 1}, {"extURL": "https://www.airbnb.com/rooms/13780800?checkin=2016-08-01&checkout=2016-08-31&af=3483444", "listAddr": "St George St, Vancouver, BC V5W", "price": 4222, "longitude": "-123.094026865152", "latitude": "49.22944478937689", "numBeds": 1}, {"extURL": "https://www.airbnb.com/rooms/1743278?checkin=2016-08-01&checkout=2016-08-31&af=3483444", "listAddr": "Hazel St, Burnaby, BC V5H 4T3", "price": 1966, "longitude": "-122.99704735119822", "latitude": "49.229105232031515", "numBeds": 1}, {"extURL": "https://www.airbnb.com/rooms/9019307?checkin=2016-08-01&checkout=2016-08-31&af=3483444", "listAddr": "Nelson Ave, Burnaby, BC V5H 4L4", "price": 1745, "longitude": "-122.99526480672847", "latitude": "49.22924118292381", "numBeds": 1}, {"extURL": "https://www.padmapper.com/listings/17063164.-3-bedroom-1-bathroom-house-at-west-50th-avenue-vancouver-bc-v6p-1a7", "listAddr": "West 50th Avenue, Vancouver, BC V6P 1A7", "price": 2800, "longitude": "-123.131", "latitude": "49.226", "numBeds": 1}, {"extURL": "https://www.padmapper.com/listings/16996956.-1-bedroom-1-bathroom-apartment-at-8675-french-st-vancouver-bc-v6p", "listAddr": "8675 French St, Vancouver, BC V6P", "price": 1400, "longitude": "-123.139", "latitude": "49.2072", "numBeds": 1}, {"extURL": "https://www.airbnb.com/rooms/13849111?checkin=2016-08-01&checkout=2016-08-31&af=3483444", "listAddr": "St Albans Rd, Richmond, BC V6Y 2K6", "price": 4675, "longitude": "-123.1303232437465", "latitude": "49.158339036558786", "numBeds": 1}, {"extURL": "https://www.airbnb.com/rooms/13066233?checkin=2016-08-01&checkout=2016-08-31&af=3483444", "listAddr": "Alberta Rd, Richmond, BC V6Y 4E3", "price": 5362, "longitude": "-123.12120278680824", "latitude": "49.166835520437324", "numBeds": 1}, {"extURL": "https://www.airbnb.com/rooms/13850294?checkin=2016-08-01&checkout=2016-08-31&af=3483444", "listAddr": "E 50th Ave, Vancouver, BC V5P 1V1", "price": 6202, "longitude": "-123.06835585524844", "latitude": "49.22440132638454", "numBeds": 1}, {"extURL": "https://www.airbnb.com/rooms/13512388?checkin=2016-08-01&checkout=2016-08-31&af=3483444", "listAddr": "Cartier St, Vancouver, BC V6P 4T1", "price": 3119, "longitude": "-123.13735921114757", "latitude": "49.215357066521804", "numBeds": 1}, {"extURL": "https://www.airbnb.com/rooms/13849146?checkin=2016-08-01&checkout=2016-08-31&af=3483444", "listAddr": "Saba Rd, Richmond, BC V6Y 4C8", "price": 3083, "longitude": "-123.13203161648751", "latitude": "49.16845994884949", "numBeds": 1}, {"extURL": "https://www.airbnb.com/rooms/11569998?checkin=2016-08-01&checkout=2016-08-31&af=3483444", "listAddr": "Denbigh Ave, Burnaby, BC V5H 3R8", "price": 1851, "longitude": "-122.9837925100227", "latitude": "49.22601756628491", "numBeds": 1}, {"extURL": "https://www.padmapper.com/listings/16625960.-1-bedroom-1-bathroom-apartment-at-3663-crowley-dr-vancouver-bc-v5r-6g1", "listAddr": "3663 Crowley Dr, Vancouver, BC V5R 6G1", "price": 1950, "longitude": "-123.027", "latitude": "49.2352", "numBeds": 1}, {"extURL": "https://www.airbnb.com/rooms/13876046?checkin=2016-08-01&checkout=2016-08-31&af=3483444", "listAddr": "84a Ave, Delta, BC V4C 2T4", "price": 4674, "longitude": "-122.8923929093872", "latitude": "49.156546061413714", "numBeds": 1}, {"extURL": "https://www.airbnb.com/rooms/7499745?checkin=2016-08-01&checkout=2016-08-31&af=3483444", "listAddr": "Waverley Ave, Burnaby, BC V5J 4A5", "price": 4442, "longitude": "-122.99718435944786", "latitude": "49.22103969684103", "numBeds": 1}, {"extURL": "https://www.airbnb.com/rooms/13562343?checkin=2016-08-01&checkout=2016-08-31&af=3483444", "listAddr": "Royal Oak Ave, Burnaby, BC V5J 4L7", "price": 994, "longitude": "-122.98860523476752", "latitude": "49.20603745470669", "numBeds": 1}, {"extURL": "https://www.airbnb.com/rooms/11026123?checkin=2016-08-01&checkout=2016-08-31&af=3483444", "listAddr": "Denbigh Ave, Burnaby, BC V5H 3R6", "price": 637, "longitude": "-122.98451824856231", "latitude": "49.22748955696916", "numBeds": 1}, {"extURL": "https://www.airbnb.com/rooms/1205063?checkin=2016-08-01&checkout=2016-08-31&af=3483444", "listAddr": "Carncross Ave, Richmond, BC V6V 2W4", "price": 515, "longitude": "-123.08582927183213", "latitude": "49.17935397566089", "numBeds": 1}, {"extURL": "https://www.padmapper.com/listings/17048483.-1-bedroom-1-bathroom-apartment-at-520-10th-st-new-westminster-bc-v3m", "listAddr": "520 10th St, New Westminster, BC V3M", "price": 980, "longitude": "-122.926", "latitude": "49.2089", "numBeds": 1}, {"extURL": "https://www.airbnb.com/rooms/13449170?checkin=2016-08-01&checkout=2016-08-31&af=3483444", "listAddr": "Angus Dr, Vancouver, BC V6M 3N5", "price": 2859, "longitude": "-123.14789741973394", "latitude": "49.23502665705139", "numBeds": 1}, {"extURL": "https://www.airbnb.com/rooms/7496066?checkin=2016-08-01&checkout=2016-08-31&af=3483444", "listAddr": "Harley Ct, Burnaby, BC V5H 1M9", "price": 2185, "longitude": "-122.99613749130846", "latitude": "49.231584841079", "numBeds": 1}, {"extURL": "https://www.airbnb.com/rooms/8305000?checkin=2016-08-01&checkout=2016-08-31&af=3483444", "listAddr": "Grafton St, Burnaby, BC V5H 3H7", "price": 2185, "longitude": "-122.99411504865009", "latitude": "49.23184261202676", "numBeds": 1}, {"extURL": "https://www.airbnb.com/rooms/9173823?checkin=2016-08-01&checkout=2016-08-31&af=3483444", "listAddr": "Rugby Ave, Burnaby, BC V5E", "price": 2537, "longitude": "-122.96060018023482", "latitude": "49.23827846297623", "numBeds": 1}, {"extURL": "https://www.airbnb.com/rooms/8329135?checkin=2016-08-01&checkout=2016-08-31&af=3483444", "listAddr": "Imperial St, Burnaby, BC V5J 1B8", "price": 2375, "longitude": "-122.9980388598695", "latitude": "49.22159256441824", "numBeds": 1}, {"extURL": "https://www.airbnb.com/rooms/9909994?checkin=2016-08-01&checkout=2016-08-31&af=3483444", "listAddr": "Gordon Ave, Burnaby, BC V5E 3L9", "price": 3186, "longitude": "-122.96136629159884", "latitude": "49.23694187776507", "numBeds": 1}, {"extURL": "https://www.airbnb.com/rooms/8629725?checkin=2016-08-01&checkout=2016-08-31&af=3483444", "listAddr": "Gordon Ave, Burnaby, BC V5E 3L8", "price": 1644, "longitude": "-122.9609981947101", "latitude": "49.23736928581379", "numBeds": 1}, {"extURL": "https://www.padmapper.com/listings/16611595.-2-bedroom-1-bathroom-apartment-at-8680-laurel-st-vancouver-bc-v6p-3v5", "listAddr": "8680 Laurel St, Vancouver, BC V6P 3V5", "price": 1200, "longitude": "-123.126", "latitude": "49.2072", "numBeds": 1}, {"extURL": "https://www.padmapper.com/listings/17074724.-3-bedroom-2-bathroom-apartment-at-4769-hazel-st-burnaby-bc-v5h-4t3", "listAddr": "4769 Hazel St, Burnaby, BC V5H 4T3", "price": 2800, "longitude": "-122.997", "latitude": "49.2292", "numBeds": 1}, {"extURL": "https://www.padmapper.com/listings/17074733.-0-bedroom-1-bathroom-apartment-at-4390-grange-st-burnaby-bc-v5h-1p6", "listAddr": "4390 Grange St, Burnaby, BC V5H 1P6", "price": 1375, "longitude": "-123.006", "latitude": "49.2319", "numBeds": 1}, {"extURL": "https://www.airbnb.com/rooms/9090402?checkin=2016-08-01&checkout=2016-08-31&af=3483444", "listAddr": "Southwood St, Burnaby, BC V5J 2E6", "price": 1025, "longitude": "-123.01614299386749", "latitude": "49.21363493678754", "numBeds": 1}, {"extURL": "https://www.airbnb.com/rooms/7148171?checkin=2016-08-01&checkout=2016-08-31&af=3483444", "listAddr": "E 51st Ave, Vancouver, BC V5S 1S4", "price": 1030, "longitude": "-123.03761522426694", "latitude": "49.22252740715989", "numBeds": 1}, {"extURL": "https://www.airbnb.com/rooms/13866228?checkin=2016-08-01&checkout=2016-08-31&af=3483444", "listAddr": "Montcalm St, Vancouver, BC V6P 4P2", "price": 2100, "longitude": "-123.13579152024174", "latitude": "49.214052122746", "numBeds": 1}, {"extURL": "https://www.airbnb.com/rooms/13029051?checkin=2016-08-01&checkout=2016-08-31&af=3483444", "listAddr": "Dunblane Ave, Burnaby, BC V5J 4G2", "price": 1563, "longitude": "-122.99256567354412", "latitude": "49.21920675729505", "numBeds": 1}, {"extURL": "https://www.airbnb.com/rooms/13879106?checkin=2016-08-01&checkout=2016-08-31&af=3483444", "listAddr": "122 St, Surrey, BC V3V 8C9", "price": 1154, "longitude": "-122.8835991736168", "latitude": "49.16881145516722", "numBeds": 1}, {"extURL": "https://www.padmapper.com/listings/17087242.-2-bedroom-1-bathroom-condo-at-808-sangster-place-new-westminster-bc-v3l-5w3", "listAddr": "808 Sangster Place, New Westminster, BC V3L 5W3", "price": 1495, "longitude": "-122.911", "latitude": "49.2234", "numBeds": 1}, {"extURL": "https://www.padmapper.com/listings/17087252.-2-bedroom-2-bathroom-condo-at-121-10th-ave-new-westminster-bc-v3m", "listAddr": "121 10th Ave, New Westminster, BC V3M", "price": 2190, "longitude": "-122.93", "latitude": "49.2177", "numBeds": 1}, {"extURL": "https://www.padmapper.com/listings/17048488.-2-bedroom-1-bathroom-apartment-at-908-sixth-ave-new-westminster-bc-v3m-3s2", "listAddr": "908 Sixth Ave, New Westminster, BC V3M 3S2", "price": 1260, "longitude": "-122.926", "latitude": "49.2099", "numBeds": 1}, {"extURL": "https://www.padmapper.com/listings/17095546.-1-bedroom-1-bathroom-apartment-at-515-ninth-st-new-westminster-bc-v3m", "listAddr": "515 Ninth St, New Westminster, BC V3M", "price": 980, "longitude": "-122.924", "latitude": "49.2096", "numBeds": 1}, {"extURL": "https://www.padmapper.com/listings/17095565.-1-bedroom-1-bathroom-apartment-at-435-ash-st-new-westminster-bc-v3m-3n2", "listAddr": "435 Ash St, New Westminster, BC V3M 3N2", "price": 980, "longitude": "-122.921", "latitude": "49.2102", "numBeds": 1}, {"extURL": "https://www.airbnb.com/rooms/8182297?checkin=2016-08-01&checkout=2016-08-31&af=3483444", "listAddr": "Donald Rd, Richmond, BC V7C 2Y8", "price": 8698, "longitude": "-123.14929959590546", "latitude": "49.158237323389386", "numBeds": 1}, {"extURL": "https://www.airbnb.com/rooms/7016010?checkin=2016-08-01&checkout=2016-08-31&af=3483444", "listAddr": "E 53rd Ave, Vancouver, BC V5P 1X5", "price": 818, "longitude": "-123.06616856942745", "latitude": "49.22183974813889", "numBeds": 1}, {"extURL": "https://www.airbnb.com/rooms/13801345?checkin=2016-08-01&checkout=2016-08-31&af=3483444", "listAddr": "W 55th Ave, Vancouver, BC V6P 1R4", "price": 3460, "longitude": "-123.13859713064036", "latitude": "49.22101380452653", "numBeds": 1}, {"extURL": "https://www.airbnb.com/rooms/10010470?checkin=2016-08-01&checkout=2016-08-31&af=3483444", "listAddr": "No. 3 Road, Richmond, BC V6Y", "price": 3564, "longitude": "-123.13659576220029", "latitude": "49.16955742415715", "numBeds": 1}, {"extURL": "https://www.airbnb.com/rooms/8567143?checkin=2016-08-01&checkout=2016-08-31&af=3483444", "listAddr": "Ewart St, Burnaby, BC V5J 2W8", "price": 1498, "longitude": "-122.97945294310085", "latitude": "49.21072915360169", "numBeds": 1}, {"extURL": "https://www.padmapper.com/listings/16609994.-0-bedroom-1-bathroom-apartment-at-4288-grange-st-burnaby-bc-v5h-1p2", "listAddr": "4288 Grange St, Burnaby, BC V5H 1P2", "price": 1120, "longitude": "-123.009", "latitude": "49.2327", "numBeds": 1}, {"extURL": "https://www.airbnb.com/rooms/12890117?checkin=2016-08-01&checkout=2016-08-31&af=3483444", "listAddr": "Prince Albert St, Vancouver, BC V5V 4K2", "price": 4764, "longitude": "-123.08753199155481", "latitude": "49.243611102830684", "numBeds": 1}, {"extURL": "https://www.airbnb.com/rooms/13918645?checkin=2016-08-01&checkout=2016-08-31&af=3483444", "listAddr": "Minoru Blvd, Richmond, BC V6Y 1Z2", "price": 4419, "longitude": "-123.14058883683745", "latitude": "49.16942024036586", "numBeds": 1}, {"extURL": "https://www.airbnb.com/rooms/13916276?checkin=2016-08-01&checkout=2016-08-31&af=3483444", "listAddr": "Victoria Dr, Vancouver, BC V5P 3V4", "price": 1022, "longitude": "-123.0657274283857", "latitude": "49.23702319465076", "numBeds": 1}, {"extURL": "https://www.airbnb.com/rooms/13914658?checkin=2016-08-01&checkout=2016-08-31&af=3483444", "listAddr": "St Catherines St, Vancouver, BC V5W 3E9", "price": 2082, "longitude": "-123.08721227942442", "latitude": "49.23964168505088", "numBeds": 1}, {"extURL": "https://www.airbnb.com/rooms/8071181?checkin=2016-08-01&checkout=2016-08-31&af=3483444", "listAddr": "Hall Pl, Richmond, BC V6X", "price": 2071, "longitude": "-123.1103592515847", "latitude": "49.18281219870487", "numBeds": 1}, {"extURL": "https://www.airbnb.com/rooms/13910535?checkin=2016-08-01&checkout=2016-08-31&af=3483444", "listAddr": "Cedarbridge Way, Richmond, BC V6X 2A2", "price": 3632, "longitude": "-123.14271691092951", "latitude": "49.17493566447325", "numBeds": 1}]